[
  {
    "name": "CAPOLINEA TORRE FARO",
    "lat": 38.265545,
    "lon": 15.638842,
    "url": "https://www.atmmessinaspa.it/smartpoles2.php?palina=832&rnd=24"
  },
  {
    "name": "CARONTE DIR CENTRO",
    "lat": 38.210917,
    "lon": 15.561099,
    "url": "https://www.atmmessinaspa.it/smartpoles2.php?palina=1555&rnd=87"
  },
  {
    "name": "CARONTE DIR LAGO",
    "lat": 38.21091,
    "lon": 15.561294,
    "url": "https://www.atmmessinaspa.it/smartpoles2.php?palina=555&rnd=85"
  },
  {
    "name": "V. CONSOLARE POMPEA 1497 DIR CENTRO",
    "lat": 38.251942,
    "lon": 15.594482,
    "url": "https://www.atmmessinaspa.it/smartpoles2.php?palina=1756&rnd=19"
  },
  {
    "name": "V. CONSOLARE POMPEA 1497 DIR LAGO",
    "lat": 38.251945,
    "lon": 15.594574,
    "url": "https://www.atmmessinaspa.it/smartpoles2.php?palina=756&rnd=27"
  },
  {
    "name": "V. CESARE BATTISTI 215",
    "lat": 38.187321,
    "lon": 15.552785,
    "url": "https://www.atmmessinaspa.it/smartpoles2.php?palina=245&rnd=87"
  },
  {
    "name": "DECO V.CONSOLARE POMPEA DIR CENTRO",
    "lat": 38.25262,
    "lon": 15.59651,
    "url": "https://www.atmmessinaspa.it/smartpoles2.php?palina=1757&rnd=67"
  },
  {
    "name": "DECO V. CONSOLARE POMPEA DIR LAGO",
    "lat": 38.252538,
    "lon": 15.596598,
    "url": "https://www.atmmessinaspa.it/smartpoles2.php?palina=757&rnd=67"
  },
  {
    "name": "DESPAR ARCERI LATO DISCESA",
    "lat": 38.259321,
    "lon": 15.60237,
    "url": "https://www.atmmessinaspa.it/smartpoles2.php?palina=1866&rnd=67"
  },
  {
    "name": "DISCESA UNI PAPARDO",
    "lat": 38.255635,
    "lon": 15.602252,
    "url": "https://www.atmmessinaspa.it/smartpoles2.php?palina=1759&rnd=71"
  },
  {
    "name": "FARMACIA GRASSO DIR LAGO (CENTRO)",
    "lat": 38.190264,
    "lon": 15.552101,
    "url": "https://www.atmmessinaspa.it/smartpoles2.php?palina=510&rnd=71"
  },
  {
    "name": "FORESTALE",
    "lat": 38.187466,
    "lon": 15.555154,
    "url": "https://www.atmmessinaspa.it/smartpoles2.php?palina=1246&rnd=91"
  },
  {
    "name": "MC TREMESTIERI DIR CENTRO",
    "lat": 38.153206,
    "lon": 15.530892,
    "url": "https://www.atmmessinaspa.it/smartpoles2.php?palina=1309&rnd=91"
  },
  {
    "name": "POLICLINICO DIR CENTRO",
    "lat": 38.162104,
    "lon": 15.538406,
    "url": "https://www.atmmessinaspa.it/smartpoles2.php?palina=116&rnd=98"
  },
  {
    "name": "SALITA ANNUNZIATA",
    "lat": 38.218223,
    "lon": 15.564862,
    "url": "https://www.atmmessinaspa.it/smartpoles2.php?palina=558&rnd=98"
  },
  {
    "name": "SEMAFORO PAPARDO DIR CENTRO",
    "lat": 38.256718,
    "lon": 15.604886,
    "url": "https://www.atmmessinaspa.it/smartpoles2.php?palina=1760&rnd=67"
  },
  {
    "name": "STAZIONE CEN DIR FARO",
    "lat": 38.185786,
    "lon": 15.559891,
    "url": "https://www.atmmessinaspa.it/smartpoles2.php?palina=1125&rnd=48"
  },
  {
    "name": "TABBACCHI SANT'AGATA DIR CENTRO",
    "lat": 38.253961,
    "lon": 15.599691,
    "url": "https://www.atmmessinaspa.it/smartpoles2.php?palina=1758&rnd=84"
  },
  {
    "name": "TABBACCHI SANT'AGATA DIR LAGO",
    "lat": 38.254035,
    "lon": 15.599924,
    "url": "https://www.atmmessinaspa.it/smartpoles2.php?palina=758&rnd=84"
  },
  {
    "name": "TRIBUNALE",
    "lat": 38.188759,
    "lon": 15.552845,
    "url": "https://www.atmmessinaspa.it/smartpoles2.php?palina=129&rnd=12"
  },
  {
    "name": "UNI PAPARDO",
    "lat": 38.261337,
    "lon": 15.59965,
    "url": "https://www.atmmessinaspa.it/smartpoles2.php?palina=863&rnd=55"
  },
  {
    "name": "VIA CESERE BATTISTI UNI",
    "lat": 38.188793,
    "lon": 15.553908,
    "url": "https://www.atmmessinaspa.it/smartpoles2.php?palina=103&rnd=87"
  },
  {
    "name": "MUSEO DIR LAGO",
    "lat": 38.2171857,
    "lon": 15.5655006,
    "url": "https://www.atmmessinaspa.it/smartpoles2.php?palina=557&rnd=84"
  },
  {
    "name": "MUSEO DIR CENTRO",
    "lat": 38.2165316,
    "lon": 15.5644549,
    "url": "https://www.atmmessinaspa.it/smartpoles2.php?palina=1557&rnd=84"
  },
  {
    "name": "V. CESARE BATTISTI - P. LEPANTO",
    "lat": 38.1915815,
    "lon": 15.5561411,
    "url": "https://www.atmmessinaspa.it/smartpoles2.php?palina=148&rnd=84"
  }
]