[
  {
    "name": "CAPOLINEA TORRE FARO",
    "lat": 38.265545,
    "lon": 15.638842,
    "url": "https://www.atmmessinaspa.it/smartpoles2.php?palina=832&rnd=24"
  },
  {
    "name": "CARONTE DIR CENTRO",
    "lat": 38.210917,
    "lon": 15.561099,
    "url": "https://www.atmmessinaspa.it/smartpoles2.php?palina=1555&rnd=87"
  },
  {
    "name": "CARONTE DIR LAGO",
    "lat": 38.21091,
    "lon": 15.561294,
    "url": "https://www.atmmessinaspa.it/smartpoles2.php?palina=555&rnd=85"
  },
  {
    "name": "V. CONSOLARE POMPEA 1497 DIR CENTRO",
    "lat": 38.251942,
    "lon": 15.594482,
    "url": "https://www.atmmessinaspa.it/smartpoles2.php?palina=1756&rnd=19"
  },
  {
    "name": "V. CONSOLARE POMPEA 1497 DIR LAGO",
    "lat": 38.251945,
    "lon": 15.594574,
    "url": "https://www.atmmessinaspa.it/smartpoles2.php?palina=756&rnd=27"
  },
  {
    "name": "V. CESARE BATTISTI 215",
    "lat": 38.187321,
    "lon": 15.552785,
    "url": "https://www.atmmessinaspa.it/smartpoles2.php?palina=245&rnd=87"
  },
  {
    "name": "DECO V.CONSOLARE POMPEA DIR CENTRO",
    "lat": 38.25262,
    "lon": 15.59651,
    "url": "https://www.atmmessinaspa.it/smartpoles2.php?palina=1757&rnd=67"
  },
  {
    "name": "DECO V. CONSOLARE POMPEA DIR LAGO",
    "lat": 38.252538,
    "lon": 15.596598,
    "url": "https://www.atmmessinaspa.it/smartpoles2.php?palina=757&rnd=67"
  },
  {
    "name": "DESPAR ARCERI LATO DISCESA",
    "lat": 38.259321,
    "lon": 15.60237,
    "url": "https://www.atmmessinaspa.it/smartpoles2.php?palina=1866&rnd=67"
  },
  {
    "name": "DISCESA UNI PAPARDO DIR CENTRO",
    "lat": 38.255635,
    "lon": 15.602252,
    "url": "https://www.atmmessinaspa.it/smartpoles2.php?palina=1759&rnd=71"
  },
  {
    "name": "FARMACIA GRASSO DIR LAGO",
    "lat": 38.190264,
    "lon": 15.552101,
    "url": "https://www.atmmessinaspa.it/smartpoles2.php?palina=510&rnd=71"
  },
  {
    "name": "FORESTALE",
    "lat": 38.187466,
    "lon": 15.555154,
    "url": "https://www.atmmessinaspa.it/smartpoles2.php?palina=1246&rnd=91"
  },
  {
    "name": "MC TREMESTIERI DIR CENTRO",
    "lat": 38.153206,
    "lon": 15.530892,
    "url": "https://www.atmmessinaspa.it/smartpoles2.php?palina=1309&rnd=91"
  },
  {
    "name": "POLICLINICO DIR CENTRO",
    "lat": 38.162104,
    "lon": 15.538406,
    "url": "https://www.atmmessinaspa.it/smartpoles2.php?palina=116&rnd=98"
  },
  {
    "name": "V.LE ANNUNZIATA - V.LLA LUCE DIR SALITA",
    "lat": 38.218223,
    "lon": 15.564862,
    "url": "https://www.atmmessinaspa.it/smartpoles2.php?palina=558&rnd=98"
  },
  {
    "name": "V.LE ANNUNZIATA - V.LLA LUCE DIR DISCESA",
    "lat": 38.21811,
    "lon": 15.56477,
    "url": "https://www.atmmessinaspa.it/smartpoles2.php?palina=1558&rnd=98"
  },
  {
    "name": "SEMAFORO PAPARDO DIR CENTRO",
    "lat": 38.256718,
    "lon": 15.604886,
    "url": "https://www.atmmessinaspa.it/smartpoles2.php?palina=1760&rnd=67"
  },
  {
    "name": "STAZIONE CEN DIR FARO",
    "lat": 38.185786,
    "lon": 15.559891,
    "url": "https://www.atmmessinaspa.it/smartpoles2.php?palina=1125&rnd=48"
  },
  {
    "name": "TABBACCHI SANT'AGATA DIR CENTRO",
    "lat": 38.253961,
    "lon": 15.599691,
    "url": "https://www.atmmessinaspa.it/smartpoles2.php?palina=1758&rnd=84"
  },
  {
    "name": "TABBACCHI SANT'AGATA DIR LAGO",
    "lat": 38.254035,
    "lon": 15.599924,
    "url": "https://www.atmmessinaspa.it/smartpoles2.php?palina=758&rnd=84"
  },
  {
    "name": "TRIBUNALE",
    "lat": 38.188759,
    "lon": 15.552845,
    "url": "https://www.atmmessinaspa.it/smartpoles2.php?palina=129&rnd=12"
  },
  {
    "name": "UNI PAPARDO",
    "lat": 38.261337,
    "lon": 15.59965,
    "url": "https://www.atmmessinaspa.it/smartpoles2.php?palina=863&rnd=55"
  },
  {
    "name": "V. CESERE BATTISTI UNI",
    "lat": 38.188793,
    "lon": 15.553908,
    "url": "https://www.atmmessinaspa.it/smartpoles2.php?palina=103&rnd=87"
  },
  {
    "name": "MUSEO DIR LAGO",
    "lat": 38.2171857,
    "lon": 15.5655006,
    "url": "https://www.atmmessinaspa.it/smartpoles2.php?palina=557&rnd=84"
  },
  {
    "name": "MUSEO DIR CENTRO",
    "lat": 38.2165316,
    "lon": 15.5644549,
    "url": "https://www.atmmessinaspa.it/smartpoles2.php?palina=1557&rnd=84"
  },
  {
    "name": "V. CESARE BATTISTI - P. LEPANTO",
    "lat": 38.1915815,
    "lon": 15.5561411,
    "url": "https://www.atmmessinaspa.it/smartpoles2.php?palina=148&rnd=84"
  },
  {
    "name": "TROCADERO DIR CENTRO",
    "lat": 38.2381817,
    "lon": 15.5778133,
    "url": "https://www.atmmessinaspa.it/smartpoles2.php?palina=1699&rnd=84"
  },
  {
    "name": "TROCADERO DIR LAGO",
    "lat": 38.2380945,
    "lon": 15.5777359,
    "url": "https://www.atmmessinaspa.it/smartpoles2.php?palina=699&rnd=84"
  },
  {
    "name": "V. CONSOLARE POMPEA 17 DIR LAGO",
    "lat": 38.2194025,
    "lon": 15.5658121,
    "url": "https://www.atmmessinaspa.it/smartpoles2.php?palina=691&rnd=84"
  },
  {
    "name": "V. CONSOLARE POMPEA 17 DIR CENTRO",
    "lat": 38.2192946,
    "lon": 15.5657917,
    "url": "https://www.atmmessinaspa.it/smartpoles2.php?palina=1691&rnd=84"
  },
  {
    "name": "V. FIUMARA GUARDIA - AUTODROMO DIR CENTRO",
    "lat": 38.25046839269177,
    "lon": 15.590353687145155,
    "url": "https://www.atmmessinaspa.it/smartpoles2.php?palina=1755&rnd=84"
  },
  {
    "name": "V. FIUMARA GUARDIA - AUTODROMO DIR LAGO",
    "lat": 38.250551629664365,
    "lon": 15.591066726324893,
    "url": "https://www.atmmessinaspa.it/smartpoles2.php?palina=755&rnd=84"
  },
  {
    "name": "V.LE ANNUNZIATA - SCUOLA VITTORINI DIR CENTRO",
    "lat": 38.2238092,
    "lon": 15.5534401,
    "url": "https://www.atmmessinaspa.it/smartpoles2.php?palina=571&rnd=84"
  },
  {
    "name": "V.LE ANNUNZIATA - SCUOLA VITTORINI DIR UNI",
    "lat": 38.223801,
    "lon": 15.553531,
    "url": "https://www.atmmessinaspa.it/smartpoles2.php?palina=1571&rnd=84"
  },
  {
    "name": "V. GARIBALDI - TORRENTE TRAPANI DIR CENTRO",
    "lat": 38.2056637,
    "lon": 15.5580666,
    "url": "https://www.atmmessinaspa.it/smartpoles2.php?palina=550&rnd=84"
  },
  {
    "name": "V. CONSOLARE POMPEA 1955 DIR CENTRO",
    "lat": 38.26292265500724,
    "lon": 15.621517887013757,
    "url": "https://www.atmmessinaspa.it/smartpoles2.php?palina=1766&rnd=84"
  }, 
  {
    "name": "V. CONSOLARE POMPEA 1955 DIR LAGO",
    "lat": 38.26281578683574,
    "lon": 15.621502948677731,
    "url": "https://www.atmmessinaspa.it/smartpoles2.php?palina=766&rnd=84"
  }, 
  {
    "name": "V. CONSOLARE POMPEA 1929 DIR LAGO",
    "lat": 38.26211179503126,
    "lon": 15.618105932808044,
    "url": "https://www.atmmessinaspa.it/smartpoles2.php?palina=765&rnd=84"
  },   
  {
    "name": "V. CONSOLARE POMPEA 1929 DIR CENTRO",
    "lat": 38.26224521083938,
    "lon": 15.618089610236815,
    "url": "https://www.atmmessinaspa.it/smartpoles2.php?palina=1765&rnd=84"
  },
  {
    "name": "V. GARIBALDI - VILLA MAZZINI DIR LAGO",
    "lat": 38.19800456169704,
    "lon": 15.5574684385418,
    "url": "https://www.atmmessinaspa.it/smartpoles2.php?palina=514&rnd=84"
  },
  {
    "name": "V.LE LIBERTA' - RINGO DIR LAGO",
    "lat": 38.213546470506365,
    "lon": 15.562496222552126, 
    "url": "https://www.atmmessinaspa.it/smartpoles2.php?palina=556&rnd=84"
  },
  {
    "name": "V.LE LIBERTA' - RINGO DIR CENTRO",
    "lat": 38.213592834175444,
    "lon": 15.562222637233344, 
    "url": "https://www.atmmessinaspa.it/smartpoles2.php?palina=1556&rnd=84"
  },
  {
    "name": "MUSEO DIR LAGO",
    "lat": 38.21723018275719,
    "lon": 15.565505661067919, 
    "url": "https://www.atmmessinaspa.it/smartpoles2.php?palina=557&rnd=84"
  },
  {
    "name": "MUSEO DIR CENTRO",
    "lat": 38.216616682706544,
    "lon": 15.564453899856828, 
    "url": "https://www.atmmessinaspa.it/smartpoles2.php?palina=1557&rnd=84"
  },
  {
    "name": "MUSEO DIR CENTRO",
    "lat": 38.216616682706544,
    "lon": 15.564453899856828, 
    "url": "https://www.atmmessinaspa.it/smartpoles2.php?palina=1557&rnd=84"
  },
  {
    "name": "V. CONSOLARE POMPEA 45 DIR LAGO",
    "lat": 38.22154,
    "lon": 15.56569, 
    "url": "https://www.atmmessinaspa.it/smartpoles2.php?palina=692&rnd=84"
  },
  {
    "name": "V. CONSOLARE POMPEA 45 DIR CENTRO",
    "lat": 38.22154,
    "lon": 15.56558, 
    "url": "https://www.atmmessinaspa.it/smartpoles2.php?palina=1692&rnd=84"
  },
  {
    "name": "V. CONSOLARE POMPEA 245 DIR LAGO",
    "lat": 38.22400,
    "lon": 15.56676, 
    "url": "https://www.atmmessinaspa.it/smartpoles2.php?palina=693&rnd=84"
  },
  {
    "name": "V. CONSOLARE POMPEA 245 DIR CENTRO",
    "lat": 38.22404,
    "lon": 15.56666, 
    "url": "https://www.atmmessinaspa.it/smartpoles2.php?palina=1693&rnd=84"
  },
  {
    "name": "PARADISO POSTE DIR LAGO",
    "lat": 38.22661,
    "lon": 15.56850, 
    "url": "https://www.atmmessinaspa.it/smartpoles2.php?palina=694&rnd=84"
  },
  {
    "name": "PARADISO POSTE DIR CENTRO",
    "lat": 38.22661,
    "lon": 15.56840, 
    "url": "https://www.atmmessinaspa.it/smartpoles2.php?palina=1694&rnd=84"
  },
  {
    "name": "CONT - POMPEA N 239 DIR CENTRO",
    "lat": 38.22921,
    "lon": 15.56970, 
    "url": "https://www.atmmessinaspa.it/smartpoles2.php?palina=1695&rnd=84"
  },
  {
    "name": "CONT - POMPEA N 239 DIR LAGO",
    "lat": 38.22921,
    "lon": 15.56980, 
    "url": "https://www.atmmessinaspa.it/smartpoles2.php?palina=695&rnd=84"
  },
  {
    "name": "CONT - POMPEA N 419 DIR CENTRO",
    "lat": 38.23231,
    "lon": 15.57091, 
    "url": "https://www.atmmessinaspa.it/smartpoles2.php?palina=1696&rnd=84"
  },
  {
    "name": "CONT - POMPEA N 419 DIR LAGO",
    "lat": 38.23231,
    "lon": 15.57100, 
    "url": "https://www.atmmessinaspa.it/smartpoles2.php?palina=696&rnd=84"
  },
  {
    "name": "CONT - V.LLA BOSURGI DIR LAGO",
    "lat": 38.23432,
    "lon": 15.57210, 
    "url": "https://www.atmmessinaspa.it/smartpoles2.php?palina=697&rnd=84"
  },
  {
    "name": "CONT - V.LLA BOSURGI DIR CENTRO",
    "lat": 38.23432,
    "lon": 15.57201, 
    "url": "https://www.atmmessinaspa.it/smartpoles2.php?palina=1697&rnd=84"
  },
  {
    "name": "PACE V. CONSOLARE POMPEA DIR LAGO",
    "lat": 38.23671,
    "lon": 15.57530, 
    "url": "https://www.atmmessinaspa.it/smartpoles2.php?palina=698&rnd=84"
  },
  {
    "name": "TORR.PACE DIR CENTRO",
    "lat": 38.23671,
    "lon": 15.57530, 
    "url": "https://www.atmmessinaspa.it/smartpoles2.php?palina=1698&rnd=84"
  },
  {
    "name": "GROTTE - POMPEA N 836 DIR LAGO",
    "lat": 38.24192,
    "lon": 15.58000, 
    "url": "https://www.atmmessinaspa.it/smartpoles2.php?palina=700&rnd=84"
  },
  {
    "name": "GROTTE - POMPEA N 836 DIR CENTRO",
    "lat": 38.24190,
    "lon": 15.57990, 
    "url": "https://www.atmmessinaspa.it/smartpoles2.php?palina=1700&rnd=84"
  },
  {
    "name": "GROTTE - C.DA FORTINO DIR LAGO",
    "lat": 38.24423,
    "lon": 15.58090, 
    "url": "https://www.atmmessinaspa.it/smartpoles2.php?palina=701&rnd=84"
  },
  {
    "name": "GROTTE - C.DA FORTINO DIR CENTRO",
    "lat": 38.24420,
    "lon": 15.58080, 
    "url": "https://www.atmmessinaspa.it/smartpoles2.php?palina=1701&rnd=84"
  },
  {
    "name": "GROTTE - POMPEA N 1129 DIR LAGO",
    "lat": 38.24641,
    "lon": 15.58280, 
    "url": "https://www.atmmessinaspa.it/smartpoles2.php?palina=702&rnd=84"
  },
  {
    "name": "GROTTE - POMPEA N 1129 DIR CENTRO",
    "lat": 38.24640,
    "lon": 15.58270, 
    "url": "https://www.atmmessinaspa.it/smartpoles2.php?palina=1702&rnd=84"
  },
  {
    "name": "GROTTE - POMPEA N 1279 DIR LAGO",
    "lat": 38.24792,
    "lon": 15.58471, 
    "url": "https://www.atmmessinaspa.it/smartpoles2.php?palina=703&rnd=84"
  },
  {
    "name": "GROTTE - POMPEA N 1279 DIR CENTRO",
    "lat": 38.24791,
    "lon": 15.58460, 
    "url": "https://www.atmmessinaspa.it/smartpoles2.php?palina=1703&rnd=84"
  },
  {
    "name": "GROTTE - POMPEA N 1349 DIR LAGO",
    "lat": 38.24941,
    "lon": 15.58770, 
    "url": "https://www.atmmessinaspa.it/smartpoles2.php?palina=704&rnd=84"
  },
  {
    "name": "GROTTE - POMPEA N 1349 DIR CENTRO",
    "lat": 38.24940,
    "lon": 15.58760, 
    "url": "https://www.atmmessinaspa.it/smartpoles2.php?palina=1704&rnd=84"
  },
  {
    "name": "V. CONSOLARE POMPEA 1681 DIR LAGO",
    "lat": 38.25575,
    "lon": 15.60278, 
    "url": "https://www.atmmessinaspa.it/smartpoles2.php?palina=759&rnd=84"
  },
  {
    "name": "SEMAFORO PAPARDO DIR LAGO",
    "lat": 38.25664,
    "lon": 15.60517, 
    "url": "https://www.atmmessinaspa.it/smartpoles2.php?palina=760&rnd=84"
  },
  {
    "name": "GANZIRRI S.PETRARCA DIR LAGO",
    "lat": 38.25772,
    "lon": 15.60670, 
    "url": "https://www.atmmessinaspa.it/smartpoles2.php?palina=761&rnd=84"
  },
  {
    "name": "GANZIRRI SC.PETRARCA DIR CENTRO",
    "lat": 38.25798,
    "lon": 15.60691, 
    "url": "https://www.atmmessinaspa.it/smartpoles2.php?palina=1761&rnd=84"
  },
  {
    "name": "GANZIRRI V. PETRARO DIR LAGO",
    "lat": 38.25962,
    "lon": 15.60961, 
    "url": "https://www.atmmessinaspa.it/smartpoles2.php?palina=762&rnd=84"
  },
  {
    "name": "GANZIRRI V. PETRARO DIR CENTRO",
    "lat": 38.25960,
    "lon": 15.60950, 
    "url": "https://www.atmmessinaspa.it/smartpoles2.php?palina=1762&rnd=84"
  },
  {
    "name": "V. CONSOLARE POMPEA 1861 DIR LAGO",
    "lat": 38.26072,
    "lon": 15.61240, 
    "url": "https://www.atmmessinaspa.it/smartpoles2.php?palina=763&rnd=84"
  },
  {
    "name": "GANZIRRI ORTOPEDICO DIR LAGO",
    "lat": 38.26131,
    "lon": 15.61514, 
    "url": "https://www.atmmessinaspa.it/smartpoles2.php?palina=764&rnd=84"
  },
  {
    "name": "GANZIRRI ORTOPEDICO DIR CENTRO",
    "lat": 38.26131,
    "lon": 15.61500, 
    "url": "https://www.atmmessinaspa.it/smartpoles2.php?palina=1764&rnd=84"
  },
  {
    "name": "GANZIRRI V. CONSOLARE POMPEA 382 DIR LAGO",
    "lat": 38.26444,
    "lon": 15.62710, 
    "url": "https://www.atmmessinaspa.it/smartpoles2.php?palina=767&rnd=84"
  },
  {
    "name": "GANZIRRI V. CONSOLARE POMPEA 382 DIR CENTRO",
    "lat": 38.26441,
    "lon": 15.62700, 
    "url": "https://www.atmmessinaspa.it/smartpoles2.php?palina=1767&rnd=84"
  },
  {
    "name": "V. CONSOLARE POMPEA 2055 DIR LAGO",
    "lat": 38.26595,
    "lon": 15.63083, 
    "url": "https://www.atmmessinaspa.it/smartpoles2.php?palina=768&rnd=84"
  },
  {
    "name": "V. CONSOLARE POMPEA 2055 DIR CENTRO",
    "lat": 38.26593,
    "lon": 15.63071, 
    "url": "https://www.atmmessinaspa.it/smartpoles2.php?palina=1768&rnd=84"
  },
  {
    "name": "V. CONSOLARE POMPEA 2095 DIR LAGO",
    "lat": 38.26652,
    "lon": 15.63239, 
    "url": "https://www.atmmessinaspa.it/smartpoles2.php?palina=769&rnd=84"
  },
  {
    "name": "V. CONSOLARE POMPEA 2095 DIR CENTRO",
    "lat": 38.26653,
    "lon": 15.63230, 
    "url": "https://www.atmmessinaspa.it/smartpoles2.php?palina=1769&rnd=84"
  },
  {
    "name": "ROTOND. GRANATARI",
    "lat": 38.26704,
    "lon": 15.63389, 
    "url": "https://www.atmmessinaspa.it/smartpoles2.php?palina=1000&rnd=84"
  },
  {
    "name": "LAGO GRANDE 2",
    "lat": 38.25902,
    "lon": 15.60870, 
    "url": "https://www.atmmessinaspa.it/smartpoles2.php?palina=822&rnd=84"
  },
  {
    "name": "LAGO GRANDE 41",
    "lat": 38.25772,
    "lon": 15.61041, 
    "url": "https://www.atmmessinaspa.it/smartpoles2.php?palina=823&rnd=84"
  },
  {
    "name": "LAGO GRANDE 70",
    "lat": 38.25832,
    "lon": 15.61289, 
    "url": "https://www.atmmessinaspa.it/smartpoles2.php?palina=824&rnd=84"
  },
  {
    "name": "LAGO GRANDE 87",
    "lat": 38.25892,
    "lon": 15.61511, 
    "url": "https://www.atmmessinaspa.it/smartpoles2.php?palina=825&rnd=84"
  },
  {
    "name": "LAGO GRANDE 98",
    "lat": 38.26032,
    "lon": 15.61810, 
    "url": "https://www.atmmessinaspa.it/smartpoles2.php?palina=826&rnd=84"
  },
  {
    "name": "GANZIRRI",
    "lat": 38.26313,
    "lon": 15.62640, 
    "url": "https://www.atmmessinaspa.it/smartpoles2.php?palina=1894&rnd=84"
  },
  {
    "name": "LAGO GRANDE 106",
    "lat": 38.26094,
    "lon": 15.62501, 
    "url": "https://www.atmmessinaspa.it/smartpoles2.php?palina=827&rnd=84"
  },
  {
    "name": "GANZIRRI SP46 N 127 DIR CENTRO",
    "lat": 38.26074,
    "lon": 15.62930, 
    "url": "https://www.atmmessinaspa.it/smartpoles2.php?palina=1828&rnd=84"
  },
  {
    "name": "GANZIRRI SP46 N 127 DIR LAGO",
    "lat": 38.26074,
    "lon": 15.62977, 
    "url": "https://www.atmmessinaspa.it/smartpoles2.php?palina=828&rnd=84"
  },
  {
    "name": "EX MOTEL FARO DIR LAGO",
    "lat": 38.26134,
    "lon": 15.63302, 
    "url": "https://www.atmmessinaspa.it/smartpoles2.php?palina=829&rnd=84"
  },
  {
    "name": "EX MOTEL FARO DIR CENTRO",
    "lat": 38.26135,
    "lon": 15.63270, 
    "url": "https://www.atmmessinaspa.it/smartpoles2.php?palina=1829&rnd=84"
  },
  {
    "name": "FARO V. CIRCUITO 170 DIR LAGO",
    "lat": 38.26271,
    "lon": 15.63550, 
    "url": "https://www.atmmessinaspa.it/smartpoles2.php?palina=830&rnd=84"
  },
  {
    "name": "FARO V. CIRCUITO 170 DIR CENTRO",
    "lat": 38.26280,
    "lon": 15.63532, 
    "url": "https://www.atmmessinaspa.it/smartpoles2.php?palina=1830&rnd=84"
  },
  {
    "name": "FARO V. CIRCUITO 177 DIR LAGO",
    "lat": 38.26422,
    "lon": 15.63750, 
    "url": "https://www.atmmessinaspa.it/smartpoles2.php?palina=831&rnd=84"
  },
  {
    "name": "FARO V. CIRCUITO 177 DIR CENTRO",
    "lat": 38.26431,
    "lon": 15.63740, 
    "url": "https://www.atmmessinaspa.it/smartpoles2.php?palina=1831&rnd=84"
  },
  {
    "name": "FARO V. NUOVA 41",
    "lat": 38.26501,
    "lon": 15.64141, 
    "url": "https://www.atmmessinaspa.it/smartpoles2.php?palina=833&rnd=84"
  },
  {
    "name": "TORRE FARO - PAPARDO",
    "lat": 38.26482,
    "lon": 15.64289, 
    "url": "https://www.atmmessinaspa.it/smartpoles2.php?palina=834&rnd=84"
  },
  {
    "name": "TORRE FARO V. P.ZZO 89",
    "lat": 38.26601,
    "lon": 15.64620, 
    "url": "https://www.atmmessinaspa.it/smartpoles2.php?palina=835&rnd=84"
  },
  {
    "name": "TORRE FARO V. AREA TORR. 28",
    "lat": 38.26681,
    "lon": 15.64900, 
    "url": "https://www.atmmessinaspa.it/smartpoles2.php?palina=836&rnd=84"
  },
  {
    "name": "TORRE FARO V. CIRCONVALLAZIONE TIRRENA 63",
    "lat": 38.26893,
    "lon": 15.65079, 
    "url": "https://www.atmmessinaspa.it/smartpoles2.php?palina=837&rnd=84"
  },
  {
    "name": "TORRE FARO C.DA TORR. BIANCA 33",
    "lat": 38.27113,
    "lon": 15.64691, 
    "url": "https://www.atmmessinaspa.it/smartpoles2.php?palina=838&rnd=84"
  },
  {
    "name": "TORRE FARO C.DA TORR. BIANCA 17A",
    "lat": 38.27163,
    "lon": 15.64408, 
    "url": "https://www.atmmessinaspa.it/smartpoles2.php?palina=839&rnd=84"
  },
  {
    "name": "TORRE FARO C.DA TORR. BIANCA 2",
    "lat": 38.27102,
    "lon": 15.64150, 
    "url": "https://www.atmmessinaspa.it/smartpoles2.php?palina=840&rnd=84"
  },
  {
    "name": "TORRE FARO POSTE E TELECOMUNICAZIONI",
    "lat": 38.27092,
    "lon": 15.63910, 
    "url": "https://www.atmmessinaspa.it/smartpoles2.php?palina=841&rnd=84"
  },
  {
    "name": "ISTITUTO MARINO",
    "lat": 38.27096,
    "lon": 15.63390, 
    "url": "https://www.atmmessinaspa.it/smartpoles2.php?palina=842&rnd=84"
  },
  {
    "name": "MORTELLE STR.STATALE 113 KM. 11-200",
    "lat": 38.26927,
    "lon": 15.63343, 
    "url": "https://www.atmmessinaspa.it/smartpoles2.php?palina=770&rnd=84"
  },
  {
    "name": "MORTELLE STR.STATALE 113 V.LLA REGINA DIR LAGO",
    "lat": 38.27071,
    "lon": 15.63296, 
    "url": "https://www.atmmessinaspa.it/smartpoles2.php?palina=771&rnd=84"
  },
  {
    "name": "MORTELLE STR.STATALE 113 V.LLA REGINA DIR CENTRO",
    "lat": 38.27056,
    "lon": 15.63304, 
    "url": "https://www.atmmessinaspa.it/smartpoles2.php?palina=1771&rnd=84"
  },
  {
    "name": "MORTELLE STR.STATALE 113 LIDO MORTELLE DIR LAGO",
    "lat": 38.27140,
    "lon": 15.62926, 
    "url": "https://www.atmmessinaspa.it/smartpoles2.php?palina=772&rnd=84"
  },
  {
    "name": "MORTELLE STR.STATALE 113 LIDO MORTELLE DIR CENTRO",
    "lat": 38.27126,
    "lon": 15.62920, 
    "url": "https://www.atmmessinaspa.it/smartpoles2.php?palina=1772&rnd=84"
  },
  {
    "name": "MORTELLE STR.STATALE 113 N33 DIR LAGO",
    "lat": 38.27143,
    "lon": 15.62730, 
    "url": "https://www.atmmessinaspa.it/smartpoles2.php?palina=773&rnd=84"
  },
  {
    "name": "MORTELLE STR.STATALE 113 N33 DIR CENTRO",
    "lat": 38.27137,
    "lon": 15.62720, 
    "url": "https://www.atmmessinaspa.it/smartpoles2.php?palina=1773&rnd=84"
  },
  {
    "name": "MORTELLE STR.STATALE 113 LIDO DELFINO DIR LAGO",
    "lat": 38.27127,
    "lon": 15.62380, 
    "url": "https://www.atmmessinaspa.it/smartpoles2.php?palina=774&rnd=84"
  },
  {
    "name": "MORTELLE STR.STATALE 113 LIDO DELFINO DIR CENTRO",
    "lat": 38.27119,
    "lon": 15.62370, 
    "url": "https://www.atmmessinaspa.it/smartpoles2.php?palina=1774&rnd=84"
  },
  {
    "name": "MORTELLE STR.STATALE 113 N75A DIR LAGO",
    "lat": 38.27112,
    "lon": 15.62118, 
    "url": "https://www.atmmessinaspa.it/smartpoles2.php?palina=775&rnd=84"
  },
  {
    "name": "MORTELLE STR.STATALE 113 N75A DIR CENTRO",
    "lat": 38.27103,
    "lon": 15.62121, 
    "url": "https://www.atmmessinaspa.it/smartpoles2.php?palina=1775&rnd=84"
  },
  {
    "name": "MORTELLE STR.STATALE 113 N42",
    "lat": 38.27101,
    "lon": 15.61860, 
    "url": "https://www.atmmessinaspa.it/smartpoles2.php?palina=776&rnd=84"
  },
  {
    "name": "MORTELLE STR.STATALE 113 SPIAGGIA D'ORO DIR LAGO",
    "lat": 38.27087,
    "lon": 15.61458, 
    "url": "https://www.atmmessinaspa.it/smartpoles2.php?palina=777&rnd=84"
  },
  {
    "name": "MORTELLE STR.STATALE 113 SPIAGGIA D'ORO DIR CENTRO",
    "lat": 38.27081,
    "lon": 15.61450, 
    "url": "https://www.atmmessinaspa.it/smartpoles2.php?palina=1777&rnd=84"
  },
  {
    "name": "TIMPAZZI STR.STATALE 113 KM 13-400 DIR LAGO",
    "lat": 38.27081,
    "lon": 15.61120, 
    "url": "https://www.atmmessinaspa.it/smartpoles2.php?palina=778&rnd=84"
  },
  {
    "name": "TIMPAZZI STR.STATALE 113 KM 13-400 DIR CENTRO",
    "lat": 38.27082,
    "lon": 15.61111, 
    "url": "https://www.atmmessinaspa.it/smartpoles2.php?palina=17778&rnd=84"
  },
  {
    "name": "TIMPAZZI STR.STATALE 113 KM 13-900 DIR LAGO",
    "lat": 38.27163,
    "lon": 15.60501, 
    "url": "https://www.atmmessinaspa.it/smartpoles2.php?palina=779&rnd=84"
  },
  {
    "name": "TIMPAZZI STR.STATALE 113 KM 13-900 DIR CENTRO",
    "lat": 38.27161,
    "lon": 15.60492, 
    "url": "https://www.atmmessinaspa.it/smartpoles2.php?palina=1779&rnd=84"
  },
  {
    "name": "TIMPAZZI STR.STATALE 113 KM 14-000 DIR LAGO",
    "lat": 38.27220,
    "lon": 15.60160, 
    "url": "https://www.atmmessinaspa.it/smartpoles2.php?palina=780&rnd=84"
  },
  {
    "name": "TIMPAZZI STR.STATALE 113 KM 14-000 DIR CENTRO",
    "lat": 38.27216,
    "lon": 15.60149, 
    "url": "https://www.atmmessinaspa.it/smartpoles2.php?palina=1780&rnd=84"
  },
  {
    "name": "TIMPAZZI STR.STATALE 113 KM 14-600 DIR LAGO",
    "lat": 38.27344,
    "lon": 15.59678, 
    "url": "https://www.atmmessinaspa.it/smartpoles2.php?palina=781&rnd=84"
  },
  {
    "name": "TIMPAZZI STR.STATALE 113 KM 14-600 DIR CENTRO",
    "lat": 38.27338,
    "lon": 15.59666, 
    "url": "https://www.atmmessinaspa.it/smartpoles2.php?palina=1781&rnd=84"
  },
  {
    "name": "TIMPAZZI STR.STATALE 113 KM 14-900 DIR LAGO",
    "lat": 38.27489,
    "lon": 15.59278, 
    "url": "https://www.atmmessinaspa.it/smartpoles2.php?palina=782&rnd=84"
  },
  {
    "name": "TIMPAZZI STR.STATALE 113 KM 14-900 DIR CENTRO",
    "lat": 38.27487,
    "lon": 15.59250, 
    "url": "https://www.atmmessinaspa.it/smartpoles2.php?palina=1782&rnd=84"
  },
  {
    "name": "C.SA BIANCA STR.STATALE 113 KM 15-150 DIR LAGO",
    "lat": 38.27712,
    "lon": 15.58860, 
    "url": "https://www.atmmessinaspa.it/smartpoles2.php?palina=783&rnd=84"
  },
  {
    "name": "C.SA BIANCA STR.STATALE 113 KM 15-150 DIR CENTRO",
    "lat": 38.27709,
    "lon": 15.58850, 
    "url": "https://www.atmmessinaspa.it/smartpoles2.php?palina=1783&rnd=84"
  },
  {
    "name": "C.SA BIANCA STR.STATALE 113 KM 15-500 DIR LAGO",
    "lat": 38.27811,
    "lon": 15.58530, 
    "url": "https://www.atmmessinaspa.it/smartpoles2.php?palina=784&rnd=84"
  },
  {
    "name": "C.SA BIANCA STR.STATALE 113 KM 15-500 DIR CENTRO",
    "lat": 38.27801,
    "lon": 15.58520, 
    "url": "https://www.atmmessinaspa.it/smartpoles2.php?palina=1784&rnd=84"
  },
  {
    "name": "C.SA BIANCA STR.STATALE 113 KM 15-950 DIR LAGO",
    "lat": 38.28033,
    "lon": 15.58052, 
    "url": "https://www.atmmessinaspa.it/smartpoles2.php?palina=785&rnd=84"
  },
  {
    "name": "C.SA BIANCA STR.STATALE 113 KM 15-950 DIR CENTRO",
    "lat": 38.28032,
    "lon": 15.58040, 
    "url": "https://www.atmmessinaspa.it/smartpoles2.php?palina=1785&rnd=84"
  },
  {
    "name": "TONO STR. STATALE 113 KM 16-600",
    "lat": 38.28234,
    "lon": 15.57648, 
    "url": "https://www.atmmessinaspa.it/smartpoles2.php?palina=786&rnd=84"
  },
  {
    "name": "TONO STR. STATALE 113 KM 16-900 DIR LAGO",
    "lat": 38.28424,
    "lon": 15.57422, 
    "url": "https://www.atmmessinaspa.it/smartpoles2.php?palina=787&rnd=84"
  },
  {
    "name": "TONO STR. STATALE 113 KM 16-900 DIR CENTRO",
    "lat": 38.28423,
    "lon": 15.57409, 
    "url": "https://www.atmmessinaspa.it/smartpoles2.php?palina=1787&rnd=84"
  },
  {
    "name": "TONO STR. STATALE 113 B.VIO FARO SUP DIR LAGO",
    "lat": 38.28399,
    "lon": 15.57084, 
    "url": "https://www.atmmessinaspa.it/smartpoles2.php?palina=788&rnd=84"
  },
  {
    "name": "TONO STR. STATALE 113 B.VIO FARO SUP DIR CENTRO",
    "lat": 38.28392,
    "lon": 15.57070, 
    "url": "https://www.atmmessinaspa.it/smartpoles2.php?palina=1788&rnd=84"
  },
  {
    "name": "TONO STR. STATALE 113 KM 17-200 DIR LAGO",
    "lat": 38.28594,
    "lon": 15.56909, 
    "url": "https://www.atmmessinaspa.it/smartpoles2.php?palina=789&rnd=84"
  },
  {
    "name": "TONO STR. STATALE 113 KM 17-200 DIR CENTRO",
    "lat": 38.28591,
    "lon": 15.56900, 
    "url": "https://www.atmmessinaspa.it/smartpoles2.php?palina=1789&rnd=84"
  },
  {
    "name": "TONO STR. STATALE 113 TORR. MEZZANA DIR LAGO",
    "lat": 38.29043,
    "lon": 15.56321, 
    "url": "https://www.atmmessinaspa.it/smartpoles2.php?palina=790&rnd=84"
  },
  {
    "name": "TONO STR. STATALE 113 TORR. MEZZANA DIR CENTRO",
    "lat": 38.29044,
    "lon": 15.56311, 
    "url": "https://www.atmmessinaspa.it/smartpoles2.php?palina=1790&rnd=84"
  },
  {
    "name": "P.NO ROCCA SS113 B.VIO ACQUALADRONE DIR LAGO",
    "lat": 38.29155,
    "lon": 15.55524, 
    "url": "https://www.atmmessinaspa.it/smartpoles2.php?palina=791&rnd=84"
  },
  {
    "name": "P.NO ROCCA SS113 B.VIO ACQUALADRONE DIR CENTRO",
    "lat": 38.29163,
    "lon": 15.55489, 
    "url": "https://www.atmmessinaspa.it/smartpoles2.php?palina=1791&rnd=84"
  },
  {
    "name": "P.NO ROCCA SS113 KM 20-100 DIR LAGO",
    "lat": 38.29393,
    "lon": 15.55432, 
    "url": "https://www.atmmessinaspa.it/smartpoles2.php?palina=792&rnd=84"
  },
  {
    "name": "P.NO ROCCA SS113 KM 20-100 DIR CENTRO",
    "lat": 38.29380,
    "lon": 15.55430, 
    "url": "https://www.atmmessinaspa.it/smartpoles2.php?palina=1792&rnd=84"
  },
  {
    "name": "P.NO ROCCA SS113 KM 20-300 DIR LAGO",
    "lat": 38.29434,
    "lon": 15.55200, 
    "url": "https://www.atmmessinaspa.it/smartpoles2.php?palina=793&rnd=84"
  },
  {
    "name": "P.NO ROCCA SS113 KM 20-300 DIR CENTRO",
    "lat": 38.29424,
    "lon": 15.55190, 
    "url": "https://www.atmmessinaspa.it/smartpoles2.php?palina=1793&rnd=84"
  },
  {
    "name": "P.NO ROCCA SS113 KM 20-500 DIR LAGO",
    "lat": 38.29494,
    "lon": 15.54854, 
    "url": "https://www.atmmessinaspa.it/smartpoles2.php?palina=794&rnd=84"
  },
  {
    "name": "P.NO ROCCA SS113 KM 20-500 DIR CENTRO",
    "lat": 38.29483,
    "lon": 15.54840, 
    "url": "https://www.atmmessinaspa.it/smartpoles2.php?palina=1794&rnd=84"
  },
  {
    "name": "SPARTA' STR.STATALE 113 KM 20-800 DIR LAGO",
    "lat": 38.29338,
    "lon": 15.54625, 
    "url": "https://www.atmmessinaspa.it/smartpoles2.php?palina=795&rnd=84"
  },
  {
    "name": "SPARTA' STR.STATALE 113 KM 20-800 DIR CENTRO",
    "lat": 38.29330,
    "lon": 15.54822, 
    "url": "https://www.atmmessinaspa.it/smartpoles2.php?palina=1795&rnd=84"
  },
  {
    "name": "SPARTA' KM 21-300 DIR LAGO",
    "lat": 38.29442,
    "lon": 15.54190, 
    "url": "https://www.atmmessinaspa.it/smartpoles2.php?palina=796&rnd=84"
  },
  {
    "name": "SPARTA' KM 21-300 DIR CENTRO",
    "lat": 38.29435,
    "lon": 15.54189, 
    "url": "https://www.atmmessinaspa.it/smartpoles2.php?palina=1796&rnd=84"
  },
  {
    "name": "SPARTA' KM 21-800",
    "lat": 38.29442,
    "lon": 15.54190, 
    "url": "https://www.atmmessinaspa.it/smartpoles2.php?palina=797&rnd=84"
  },
  {
    "name": "P.NO TORRE DISC. MARINA DI MEZZACAPA DIR LAGO",
    "lat": 38.29321,
    "lon": 15.53298, 
    "url": "https://www.atmmessinaspa.it/smartpoles2.php?palina=798&rnd=84"
  },
  {
    "name": "P.NO TORRE SS113 KM 22-500 DIR LAGO",
    "lat": 38.29268,
    "lon": 15.52879, 
    "url": "https://www.atmmessinaspa.it/smartpoles2.php?palina=799&rnd=84"
  },
  {
    "name": "P.NO TORRE SS113 KM 22-500 DIR CENTRO",
    "lat": 38.29255,
    "lon": 15.52870, 
    "url": "https://www.atmmessinaspa.it/smartpoles2.php?palina=1799&rnd=84"
  },
  {
    "name": "V.LE ANNUNZIATA S.ELENA DIR SALITA",
    "lat": 38.21868,
    "lon": 15.56290, 
    "url": "https://www.atmmessinaspa.it/smartpoles2.php?palina=559&rnd=84"
  },
  {
    "name": "V.LE ANNUNZIATA S.ELENA DIR DISCESA",
    "lat": 38.21850,
    "lon": 15.56293, 
    "url": "https://www.atmmessinaspa.it/smartpoles2.php?palina=1559&rnd=84"
  },
  {
    "name": "ST. PANORAMICA DELLO STRETTO V.LE DEI TIGLI DIR LAGO",
    "lat": 38.21963,
    "lon": 15.56382, 
    "url": "https://www.atmmessinaspa.it/smartpoles2.php?palina=847&rnd=84"
  },
  {
    "name": "ST. PANORAMICA DELLO STRETTO V.LE DEI TIGLI DIR CENTRO",
    "lat": 38.21967,
    "lon": 15.56371, 
    "url": "https://www.atmmessinaspa.it/smartpoles2.php?palina=1847&rnd=84"
  },
  {
    "name": "ST. PANORAMICA DELLO STRETTO EDEN PARK DIR CENTRO",
    "lat": 38.22312,
    "lon": 15.56460, 
    "url": "https://www.atmmessinaspa.it/smartpoles2.php?palina=1848&rnd=84"
  },
  {
    "name": "ST. PANORAMICA DELLO STRETTO EDEN PARK DIR LAGO",
    "lat": 38.22310,
    "lon": 15.56450, 
    "url": "https://www.atmmessinaspa.it/smartpoles2.php?palina=848&rnd=84"
  },
  {
    "name": "ST. PANORAMICA DELLO STRETTO 574 DIR LAGO",
    "lat": 38.22532,
    "lon": 15.56470, 
    "url": "https://www.atmmessinaspa.it/smartpoles2.php?palina=849&rnd=84"
  },
  {
    "name": "ST. PANORAMICA DELLO STRETTO 574 DIR CENTRO",
    "lat": 38.22530,
    "lon": 15.56460, 
    "url": "https://www.atmmessinaspa.it/smartpoles2.php?palina=1849&rnd=84"
  },
  {
    "name": "ST. PANORAMICA DELLO STRETTO PARNASO DIR LAGO",
    "lat": 38.22637,
    "lon": 15.56571, 
    "url": "https://www.atmmessinaspa.it/smartpoles2.php?palina=850&rnd=84"
  },
  {
    "name": "ST. PANORAMICA DELLO STRETTO PARNASO DIR CENTRO",
    "lat": 38.22640,
    "lon": 15.56560, 
    "url": "https://www.atmmessinaspa.it/smartpoles2.php?palina=1850&rnd=84"
  },
  {
    "name": "ST. PANORAMICA DELLO STRETTO LINEA VERDE 1 DIR LAGO",
    "lat": 38.22726,
    "lon": 15.56656, 
    "url": "https://www.atmmessinaspa.it/smartpoles2.php?palina=851&rnd=84"
  },
  {
    "name": "ST. PANORAMICA DELLO STRETTO LINEA VERDE DIR CENTRO",
    "lat": 38.22751,
    "lon": 15.56650, 
    "url": "https://www.atmmessinaspa.it/smartpoles2.php?palina=1851&rnd=84"
  },
  {
    "name": "ST. PANORAMICA DELLO STRETTO LINEA VERDE 2 DIR LAGO",
    "lat": 38.22932,
    "lon": 15.56824, 
    "url": "https://www.atmmessinaspa.it/smartpoles2.php?palina=852&rnd=84"
  },
  {
    "name": "ST. PANORAMICA DELLO STRETTO LINEA VERDE 2 DIR CENTRO",
    "lat": 38.22931,
    "lon": 15.56817, 
    "url": "https://www.atmmessinaspa.it/smartpoles2.php?palina=1852&rnd=84"
  },
  {
    "name": "ST. PANORAMICA DELLO STRETTO RIALTO AZZURRO DIR LAGO",
    "lat": 38.23102,
    "lon": 15.56830, 
    "url": "https://www.atmmessinaspa.it/smartpoles2.php?palina=853&rnd=84"
  },
  {
    "name": "ST. PANORAMICA DELLO STRETTO RIALTO AZZURRO DIR CENTRO",
    "lat": 38.23097,
    "lon": 15.56825, 
    "url": "https://www.atmmessinaspa.it/smartpoles2.php?palina=1853&rnd=84"
  },
  {
    "name": "ST. PANORAMICA DELLO STRETTO KM 2-200 DIR LAGO",
    "lat": 38.23289,
    "lon": 15.56996, 
    "url": "https://www.atmmessinaspa.it/smartpoles2.php?palina=854&rnd=84"
  },
  {
    "name": "ST. PANORAMICA DELLO STRETTO KM 2-200 DIR CENTRO",
    "lat": 38.23292,
    "lon": 15.56969, 
    "url": "https://www.atmmessinaspa.it/smartpoles2.php?palina=1854&rnd=84"
  },
  {
    "name": "ST. PANORAMICA DELLO STRETTO KM 2-500 DIR LAGO",
    "lat": 38.23651,
    "lon": 15.57210, 
    "url": "https://www.atmmessinaspa.it/smartpoles2.php?palina=855&rnd=84"
  },
  {
    "name": "ST. PANORAMICA DELLO STRETTO KM 2-500 DIR CENTRO",
    "lat": 38.23677,
    "lon": 15.57172, 
    "url": "https://www.atmmessinaspa.it/smartpoles2.php?palina=1855&rnd=84"
  },
  {
    "name": "ST. PANORAMICA DELLO STRETTO CIMITERO DIR LAGO",
    "lat": 38.23909,
    "lon": 15.57562, 
    "url": "https://www.atmmessinaspa.it/smartpoles2.php?palina=856&rnd=84"
  },
  {
    "name": "ST. PANORAMICA DELLO STRETTO CIMITERO DIR CENTRO",
    "lat": 38.23929,
    "lon": 15.57516, 
    "url": "https://www.atmmessinaspa.it/smartpoles2.php?palina=1856&rnd=84"
  },
  {
    "name": "ST. PANORAMICA DELLO STRETTO PARCHEGGIO DIR CENTRO",
    "lat": 38.24170,
    "lon": 15.57782, 
    "url": "https://www.atmmessinaspa.it/smartpoles2.php?palina=1857&rnd=84"
  },
  {
    "name": "ST. PANORAMICA DELLO STRETTO PARCHEGGIO DIR LAGO",
    "lat": 38.24169,
    "lon": 15.57851, 
    "url": "https://www.atmmessinaspa.it/smartpoles2.php?palina=857&rnd=84"
  },
  {
    "name": "ST. PANORAMICA DELLO STRETTO KM 4-400 DIR LAGO",
    "lat": 38.24834,
    "lon": 15.58299, 
    "url": "https://www.atmmessinaspa.it/smartpoles2.php?palina=858&rnd=84"
  },
  {
    "name": "ST. PANORAMICA DELLO STRETTO KM 4-400 DIR CENTRO",
    "lat": 38.24845,
    "lon": 15.58287, 
    "url": "https://www.atmmessinaspa.it/smartpoles2.php?palina=1858&rnd=84"
  },
  {
    "name": "ST. PANORAMICA DELLO STRETTO DIR LAGO",
    "lat": 38.25176,
    "lon": 15.59043, 
    "url": "https://www.atmmessinaspa.it/smartpoles2.php?palina=2858&rnd=84"
  },
  {
    "name": "ST. PANORAMICA DELLO STRETTO DIR CENTRO",
    "lat": 38.25202,
    "lon": 15.59051, 
    "url": "https://www.atmmessinaspa.it/smartpoles2.php?palina=2857&rnd=84"
  },
  {
    "name": "ST. PANORAMICA DELLO STRETTO DIR LAGO",
    "lat": 38.25262,
    "lon": 15.59335, 
    "url": "https://www.atmmessinaspa.it/smartpoles2.php?palina=2856&rnd=84"
  },
  {
    "name": "ST. PANORAMICA DELLO STRETTO VILLA LABRUTO DIR LAGO",
    "lat": 38.25575,
    "lon": 15.59742, 
    "url": "https://www.atmmessinaspa.it/smartpoles2.php?palina=2855&rnd=84"
  },
  {
    "name": "ST. PANORAMICA DELLO STRETTO VILLA LABRUTO DIR CENTRO",
    "lat": 38.25582,
    "lon": 15.59722, 
    "url": "https://www.atmmessinaspa.it/smartpoles2.php?palina=2854&rnd=84"
  },
  {
    "name": "ST. PANORAMICA DELLO STRETTO KM 6-300 DIR LAGO",
    "lat": 38.25805,
    "lon": 15.59863, 
    "url": "https://www.atmmessinaspa.it/smartpoles2.php?palina=859&rnd=84"
  },
  {
    "name": "ST. PANORAMICA DELLO STRETTO KM 6-300 DIR CENTRO",
    "lat": 38.25808,
    "lon": 15.59843, 
    "url": "https://www.atmmessinaspa.it/smartpoles2.php?palina=1859&rnd=84"
  },
  {
    "name": "V.LE STAGNO D'ALCONTRES-P.TE SP DIR CENTRO",
    "lat": 38.26025,
    "lon": 15.60161, 
    "url": "https://www.atmmessinaspa.it/smartpoles2.php?palina=866&rnd=84"
  },
  {
    "name": "ST. PANORAMICA DELLO STRETTO DIR LAGO",
    "lat": 38.26115,
    "lon": 15.60304, 
    "url": "https://www.atmmessinaspa.it/smartpoles2.php?palina=2853&rnd=84"
  },
  {
    "name": "ST. PANORAMICA DELLO STRETTO VILLA LUNA DIR LAGO",
    "lat": 38.26365,
    "lon": 15.60529, 
    "url": "https://www.atmmessinaspa.it/smartpoles2.php?palina=2852&rnd=84"
  },
  {
    "name": "ST. PANORAMICA DELLO STRETTO VILLA LUNA DIR CENTRO",
    "lat": 38.26378,
    "lon": 15.60499, 
    "url": "https://www.atmmessinaspa.it/smartpoles2.php?palina=2851&rnd=84"
  },
  {
    "name": "ST. PANORAMICA DELLO STRETTO DIR LAGO",
    "lat": 38.26496,
    "lon": 15.60947, 
    "url": "https://www.atmmessinaspa.it/smartpoles2.php?palina=2849&rnd=84"
  },
  {
    "name": "ST. PANORAMICA DELLO STRETTO KM 8-100 DIR LAGO",
    "lat": 38.26656,
    "lon": 15.61591, 
    "url": "https://www.atmmessinaspa.it/smartpoles2.php?palina=860&rnd=84"
  },
  {
    "name": "ST. PANORAMICA DELLO STRETTO KM 8-100 DIR CENTRO",
    "lat": 38.26663,
    "lon": 15.61569, 
    "url": "https://www.atmmessinaspa.it/smartpoles2.php?palina=1860&rnd=84"
  },
  {
    "name": "ST. PANORAMICA DELLO STRETTO KM 8-700 DIR LAGO",
    "lat": 38.26648,
    "lon": 15.62281, 
    "url": "https://www.atmmessinaspa.it/smartpoles2.php?palina=861&rnd=84"
  },
  {
    "name": "ST. PANORAMICA DELLO STRETTO KM 8-700 DIR CENTRO",
    "lat": 38.26660,
    "lon": 15.62259, 
    "url": "https://www.atmmessinaspa.it/smartpoles2.php?palina=1861&rnd=84"
  },
  {
    "name": "FRANTINARO",
    "lat": 38.26895,
    "lon": 15.62528, 
    "url": "https://www.atmmessinaspa.it/smartpoles2.php?palina=862&rnd=84"
  },
  {
    "name": "V. ARCHIMEDE 15 DIR SPERONE",
    "lat": 38.26160,
    "lon": 15.60010, 
    "url": "https://www.atmmessinaspa.it/smartpoles2.php?palina=895&rnd=84"
  },
   {
    "name": "V. ARCHIMEDE 28 DIR SPERONE",
    "lat": 38.26351,
    "lon": 15.60050, 
    "url": "https://www.atmmessinaspa.it/smartpoles2.php?palina=896&rnd=84"
  },
  {
    "name": "V. ARCHIMEDE 28 DIR CENTRO",
    "lat": 38.26350,
    "lon": 15.60040, 
    "url": "https://www.atmmessinaspa.it/smartpoles2.php?palina=1896&rnd=84"
  },
  {
    "name": "V. ARCHIMEDE 37 DIR CENTRO",
    "lat": 38.26524,
    "lon": 15.60126, 
    "url": "https://www.atmmessinaspa.it/smartpoles2.php?palina=1897&rnd=84"
  },
  {
    "name": "SERRI STR. COMUNALE N32 DIR SPERONE",
    "lat": 38.26632,
    "lon": 15.60287, 
    "url": "https://www.atmmessinaspa.it/smartpoles2.php?palina=898&rnd=84"
  },
  {
    "name": "SERRI STR. COMUNALE GR.ATARI-MASSE DIR SPERONE",
    "lat": 38.26813,
    "lon": 15.60652, 
    "url": "https://www.atmmessinaspa.it/smartpoles2.php?palina=899&rnd=84"
  },
  {
    "name": "C.DA SERRI - 22",
    "lat": 38.26802,
    "lon": 15.60909, 
    "url": "https://www.atmmessinaspa.it/smartpoles2.php?palina=900&rnd=84"
  },
  {
    "name": "SERRI",
    "lat": 38.26811,
    "lon": 15.61072, 
    "url": "https://www.atmmessinaspa.it/smartpoles2.php?palina=901&rnd=84"
  },
  {
    "name": "C.SE SPERONE - 2",
    "lat": 38.26612,
    "lon": 15.60173, 
    "url": "https://www.atmmessinaspa.it/smartpoles2.php?palina=902&rnd=84"
  },
  {
    "name": "V. SPERONE ALTO -CH DEI MIRACOLI DIR SPERONE",
    "lat": 38.26682,
    "lon": 15.59997, 
    "url": "https://www.atmmessinaspa.it/smartpoles2.php?palina=903&rnd=84"
  },
  {
    "name": "V. SPERONE ALTO -CH DEI MIRACOLI DIR CENTRO",
    "lat": 38.26680,
    "lon": 15.59972, 
    "url": "https://www.atmmessinaspa.it/smartpoles2.php?palina=1903&rnd=84"
  },
  {
    "name": "V. SPERONE ALTO V.S. CATERINA DIR SPERONE",
    "lat": 38.26792,
    "lon": 15.59584, 
    "url": "https://www.atmmessinaspa.it/smartpoles2.php?palina=904&rnd=84"
  },
  {
    "name": "V. SPERONE ALTO V.S. CATERINA DIR CENTRO",
    "lat": 38.26774,
    "lon": 15.59546, 
    "url": "https://www.atmmessinaspa.it/smartpoles2.php?palina=1904&rnd=84"
  },
  {
    "name": "V. SPERONE ALTO 39 DIR SPERONE",
    "lat": 38.26870,
    "lon": 15.59340, 
    "url": "https://www.atmmessinaspa.it/smartpoles2.php?palina=905&rnd=84"
  },
  {
    "name": "V. SPERONE ALTO 39 DIR CENTRO",
    "lat": 38.26874,
    "lon": 15.59349, 
    "url": "https://www.atmmessinaspa.it/smartpoles2.php?palina=1905&rnd=84"
  },
  {
    "name": "C.A BADESSA DIR SPERONE",
    "lat": 38.27172,
    "lon": 15.58511, 
    "url": "https://www.atmmessinaspa.it/smartpoles2.php?palina=906&rnd=84"
  },
  {
    "name": "C.A BADESSA DIR CENTRO",
    "lat": 38.27166,
    "lon": 15.58616, 
    "url": "https://www.atmmessinaspa.it/smartpoles2.php?palina=1906&rnd=84"
  },
  {
    "name": "C.A BADESSA COOP. SOLERMAR DIR SPERONE",
    "lat": 38.27015,
    "lon": 15.58480, 
    "url": "https://www.atmmessinaspa.it/smartpoles2.php?palina=907&rnd=84"
  },
  {
    "name": "C.A BADESSA COOP. SOLERMAR DIR CENTRO",
    "lat": 38.26999,
    "lon": 15.58481, 
    "url": "https://www.atmmessinaspa.it/smartpoles2.php?palina=1907&rnd=84"
  },
  {
    "name": "C.A BADESSA CAPOLINEA",
    "lat": 38.26846,
    "lon": 15.58435, 
    "url": "https://www.atmmessinaspa.it/smartpoles2.php?palina=908&rnd=84"
  },
  {
    "name": "SP45 - FARO SUP.RE LAM 85 DIR FARO SUP",
    "lat": 38.25701,
    "lon": 15.59688, 
    "url": "https://www.atmmessinaspa.it/smartpoles2.php?palina=707&rnd=84"
  },
  {
    "name": "SP45 - FARO SUP.RE LAM 85 DIR CENTRO",
    "lat": 38.25662,
    "lon": 15.59654, 
    "url": "https://www.atmmessinaspa.it/smartpoles2.php?palina=1707&rnd=84"
  },
  {
    "name": "SP45 - FARO SUP.RE N33 DIR FARO SUP",
    "lat": 38.25761,
    "lon": 15.59301, 
    "url": "https://www.atmmessinaspa.it/smartpoles2.php?palina=708&rnd=84"
  },
  {
    "name": "SP45 - FARO SUP.RE N33 DIR CENTRO",
    "lat": 38.25751,
    "lon": 15.59290, 
    "url": "https://www.atmmessinaspa.it/smartpoles2.php?palina=1708&rnd=84"
  },
  {
    "name": "SP45 - FARO SUP.RE KM 2-200 DIR FARO SUP",
    "lat": 38.25891,
    "lon": 15.58721, 
    "url": "https://www.atmmessinaspa.it/smartpoles2.php?palina=709&rnd=84"
  },
  {
    "name": "SP45 - FARO SUP.RE KM 2-200 DIR CENTRO",
    "lat": 38.25890,
    "lon": 15.58700, 
    "url": "https://www.atmmessinaspa.it/smartpoles2.php?palina=1709&rnd=84"
  },
  {
    "name": "FARO SUP V. MESSINA 4 DIR FARO SUP",
    "lat": 38.26073,
    "lon": 15.58424, 
    "url": "https://www.atmmessinaspa.it/smartpoles2.php?palina=710&rnd=84"
  },
  {
    "name": "FARO SUP V. MESSINA 4 DIR CENTRO",
    "lat": 38.26071,
    "lon": 15.58409, 
    "url": "https://www.atmmessinaspa.it/smartpoles2.php?palina=1710&rnd=84"
  },
  {
    "name": "FARO SUP V. MESSINA 16 DIR FARO SUP",
    "lat": 38.26269,
    "lon": 15.58352, 
    "url": "https://www.atmmessinaspa.it/smartpoles2.php?palina=711&rnd=84"
  },
  {
    "name": "FARO SUP V. MESSINA 16 DIR CENTRO",
    "lat": 38.26250,
    "lon": 15.58341, 
    "url": "https://www.atmmessinaspa.it/smartpoles2.php?palina=1711&rnd=84"
  },
  {
    "name": "FARO SUP P.ZZA S.ROCCO DIR CENTRO",
    "lat": 38.26482,
    "lon": 15.58334, 
    "url": "https://www.atmmessinaspa.it/smartpoles2.php?palina=1712&rnd=84"
  },
  {
    "name": "FARO SUP V.BELVEDERE 40 DIR CENTRO",
    "lat": 38.26691,
    "lon": 15.58180, 
    "url": "https://www.atmmessinaspa.it/smartpoles2.php?palina=1869&rnd=84"
  },
  {
    "name": "VIA CASTELLANA DIR CENTRO",
    "lat": 38.26763,
    "lon": 15.58164, 
    "url": "https://www.atmmessinaspa.it/smartpoles2.php?palina=3022&rnd=84"
  },
  {
    "name": "FARO SUP V.LE REGINA ELENA",
    "lat": 38.26942,
    "lon": 15.58164, 
    "url": "https://www.atmmessinaspa.it/smartpoles2.php?palina=1870&rnd=84"
  },
  {
    "name": "STR. PROV.LE 49",
    "lat": 38.27152,
    "lon": 15.58170, 
    "url": "https://www.atmmessinaspa.it/smartpoles2.php?palina=1871&rnd=84"
  },
  {
    "name": "STR. PROV.LE 49",
    "lat": 38.27496,
    "lon": 15.57665, 
    "url": "https://www.atmmessinaspa.it/smartpoles2.php?palina=1872&rnd=84"
  },
  {
    "name": "STR. PROV.LE 49",
    "lat": 38.27574,
    "lon": 15.57577, 
    "url": "https://www.atmmessinaspa.it/smartpoles2.php?palina=1873&rnd=84"
  },
  {
    "name": "V.LE STAGNO D'ALCONTRES - PAPARDO DIR CENTRO",
    "lat": 38.26237,
    "lon": 15.59620, 
    "url": "https://www.atmmessinaspa.it/smartpoles2.php?palina=865&rnd=84"
  },
  {
    "name": "S D'ALCONT - ELIPORTO DIR CENTRO",
    "lat": 38.26182,
    "lon": 15.59806, 
    "url": "https://www.atmmessinaspa.it/smartpoles2.php?palina=1864&rnd=84"
  },
  {
    "name": "S D'ALCONT - ELIPORTO DIR PAPARDO",
    "lat": 38.26198,
    "lon": 15.59813, 
    "url": "https://www.atmmessinaspa.it/smartpoles2.php?palina=864&rnd=84"
  },
  {
    "name": "DIP SCIENZE",
    "lat": 38.26069,
    "lon": 15.59916, 
    "url": "https://www.atmmessinaspa.it/smartpoles2.php?palina=2013&rnd=84"
  },
  {
    "name": "DIP SCIENZE SBA",
    "lat": 38.26085,
    "lon": 15.59789, 
    "url": "https://www.atmmessinaspa.it/smartpoles2.php?palina=2014&rnd=84"
  },
  {
    "name": "INC. D'IMPRESE",
    "lat": 38.25858,
    "lon": 15.59800, 
    "url": "https://www.atmmessinaspa.it/smartpoles2.php?palina=2001&rnd=84"
  },
  {
    "name": "ERSU PAPARDO",
    "lat": 38.25859,
    "lon": 15.59683, 
    "url": "https://www.atmmessinaspa.it/smartpoles2.php?palina=2016&rnd=84"
  },
  {
    "name": "TORR.NTE GUARDIA FER 2 DIR SALITA",
    "lat": 38.25144,
    "lon": 15.58677, 
    "url": "https://www.atmmessinaspa.it/smartpoles2.php?palina=706&rnd=84"
  },
  {
    "name": "TORR.NTE GUARDIA FER 2 DIR DISCESA",
    "lat": 38.25131,
    "lon": 15.58671, 
    "url": "https://www.atmmessinaspa.it/smartpoles2.php?palina=1706&rnd=84"
  },
  {
    "name": "MAROTTA",
    "lat": 38.25495,
    "lon": 15.56562, 
    "url": "https://www.atmmessinaspa.it/smartpoles2.php?palina=876&rnd=84"
  },
  {
    "name": "C.DA MAROTTA 47",
    "lat": 38.25592,
    "lon": 15.56602, 
    "url": "https://www.atmmessinaspa.it/smartpoles2.php?palina=877&rnd=84"
  },
  {
    "name": "C.DA MAROTTA STR COMUNALE BIANCHI DIR SALITA",
    "lat": 38.25841,
    "lon": 15.56705, 
    "url": "https://www.atmmessinaspa.it/smartpoles2.php?palina=878&rnd=84"
  },
  {
    "name": "C.DA MAROTTA STR COMUNALE BIANCHI DIR DISCESA",
    "lat": 38.25840,
    "lon": 15.56699, 
    "url": "https://www.atmmessinaspa.it/smartpoles2.php?palina=1878&rnd=84"
  },
  {
    "name": "SP45 CURCURACI V.VIO MAROTTA DIR SALITA",
    "lat": 38.26162,
    "lon": 15.56766, 
    "url": "https://www.atmmessinaspa.it/smartpoles2.php?palina=720&rnd=84"
  },
  {
    "name": "SP45 CURCURACI V.VIO MAROTTA DIR DISCESA",
    "lat": 38.26400,
    "lon": 15.56641, 
    "url": "https://www.atmmessinaspa.it/smartpoles2.php?palina=1721&rnd=84"
  },
  {
    "name": "SP45 CURCURACI COMP DELLE MORE DIR SALITA",
    "lat": 38.26394,
    "lon": 15.56637, 
    "url": "https://www.atmmessinaspa.it/smartpoles2.php?palina=721&rnd=84"
  },
  {
    "name": "SP45 CURCURACI KM6-200 DIR DISCESA",
    "lat": 38.26172,
    "lon": 15.56144, 
    "url": "https://www.atmmessinaspa.it/smartpoles2.php?palina=1722&rnd=84"
  },
  {
    "name": "SP45 CURCURACI KM6-200 DIR SALITA",
    "lat": 38.26171,
    "lon": 15.56140, 
    "url": "https://www.atmmessinaspa.it/smartpoles2.php?palina=722&rnd=84"
  },
  {
    "name": "SP45 CURCURACI KM6-500 DIR SALITA",
    "lat": 38.26102,
    "lon": 15.56102, 
    "url": "https://www.atmmessinaspa.it/smartpoles2.php?palina=723&rnd=84"
  },
  {
    "name": "SP45 CURCURACI KM6-500 DIR DISCESA",
    "lat": 38.26091,
    "lon": 15.55902, 
    "url": "https://www.atmmessinaspa.it/smartpoles2.php?palina=1723&rnd=84"
  },
  {
    "name": "SP45 MASSA S.GIOVANNI KM 7-700",
    "lat": 38.25931,
    "lon": 15.54890, 
    "url": "https://www.atmmessinaspa.it/smartpoles2.php?palina=724&rnd=84"
  },
  {
    "name": "SP45 MASSA S.GIOVANNI KM 9-700 DIR SALITA",
    "lat": 38.25941,
    "lon": 15.54384, 
    "url": "https://www.atmmessinaspa.it/smartpoles2.php?palina=725&rnd=84"
  },
  {
    "name": "SP45 MASSA S.GIOVANNI KM 9-700 DIR DISCESA",
    "lat": 38.25940,
    "lon": 15.54354, 
    "url": "https://www.atmmessinaspa.it/smartpoles2.php?palina=1725&rnd=84"
  },
  {
    "name": "SP45 MASSA S.GIOVANNI KM 9-900 DIR SALITA",
    "lat": 38.25987,
    "lon": 15.54231, 
    "url": "https://www.atmmessinaspa.it/smartpoles2.php?palina=726&rnd=84"
  },
  {
    "name": "SP45 MASSA S.GIOVANNI KM 9-900 DIR DISCESA",
    "lat": 38.25980,
    "lon": 15.54220, 
    "url": "https://www.atmmessinaspa.it/smartpoles2.php?palina=1726&rnd=84"
  },
  {
    "name": "SP45 MASSA S.GIOVANNI KM 10-000 DIR SALITA",
    "lat": 38.26211,
    "lon": 15.54248, 
    "url": "https://www.atmmessinaspa.it/smartpoles2.php?palina=727&rnd=84"
  },
  {
    "name": "SP45 MASSA S.GIOVANNI KM 10-000 DIR DISCESA",
    "lat": 38.26214,
    "lon": 15.54230, 
    "url": "https://www.atmmessinaspa.it/smartpoles2.php?palina=1727&rnd=84"
  },
  {
    "name": "SP45 MASSA S.GIOVANNI KM 10-200 DIR SALITA",
    "lat": 38.26364,
    "lon": 15.54292, 
    "url": "https://www.atmmessinaspa.it/smartpoles2.php?palina=728&rnd=84"
  },
  {
    "name": "SP45 MASSA S.GIOVANNI KM 10-200 DIR DISCESA",
    "lat": 38.26371,
    "lon": 15.54269, 
    "url": "https://www.atmmessinaspa.it/smartpoles2.php?palina=1728&rnd=84"
  },
  {
    "name": "SP45 MASSA S.GIOVANNI CH. DI S.GIOVANNI DIR SALITA",
    "lat": 38.26490,
    "lon": 15.54384, 
    "url": "https://www.atmmessinaspa.it/smartpoles2.php?palina=729&rnd=84"
  },
  {
    "name": "SP45 MASSA S.GIOVANNI CH. DI S.GIOVANNI DIR DISCESA",
    "lat": 38.26496,
    "lon": 15.54382, 
    "url": "https://www.atmmessinaspa.it/smartpoles2.php?palina=1729&rnd=84"
  },
  {
    "name": "SP45 MASSA S.GIOVANNI P.ZZA DI S.GIOVANNI DIR DISCESA",
    "lat": 38.26600,
    "lon": 15.54501, 
    "url": "https://www.atmmessinaspa.it/smartpoles2.php?palina=1730&rnd=84"
  },
  {
    "name": "SP45 MASSA S.GIOVANNI P.ZZA DI S.GIOVANNI DIR SALITA",
    "lat": 38.26591,
    "lon": 15.54500, 
    "url": "https://www.atmmessinaspa.it/smartpoles2.php?palina=730&rnd=84"
  },
  {
    "name": "SP45 MASSA S.GIOVANNI KM 10-800 DIR SALITA",
    "lat": 38.26788,
    "lon": 15.54597, 
    "url": "https://www.atmmessinaspa.it/smartpoles2.php?palina=731&rnd=84"
  },
  {
    "name": "SP45 MASSA S.GIOVANNI KM 10-800 DIR DISCESA",
    "lat": 38.26793,
    "lon": 15.54593, 
    "url": "https://www.atmmessinaspa.it/smartpoles2.php?palina=1731&rnd=84"
  },
  {
    "name": "SP45 MASSA S.LUCIA KM 11-000 DIR SALITA",
    "lat": 38.26881,
    "lon": 15.54740, 
    "url": "https://www.atmmessinaspa.it/smartpoles2.php?palina=732&rnd=84"
  },
  {
    "name": "SP45 MASSA S.LUCIA KM 11-000 DIR DISCESA",
    "lat": 38.26873,
    "lon": 15.54748, 
    "url": "https://www.atmmessinaspa.it/smartpoles2.php?palina=1732&rnd=84"
  },
  {
    "name": "SP45 MASSA S.LUCIA 5 DIR SALITA",
    "lat": 38.26862,
    "lon": 15.54821, 
    "url": "https://www.atmmessinaspa.it/smartpoles2.php?palina=733&rnd=84"
  },
  {
    "name": "SP45 MASSA S.LUCIA 5 DIR DISCESA",
    "lat": 38.26870,
    "lon": 15.54820, 
    "url": "https://www.atmmessinaspa.it/smartpoles2.php?palina=1733&rnd=84"
  },
  {
    "name": "SP45 MASSA S.LUCIA SCUOLA ELEMENTARE DIR SALITA",
    "lat": 38.27031,
    "lon": 15.54810, 
    "url": "https://www.atmmessinaspa.it/smartpoles2.php?palina=734&rnd=84"
  },
  {
    "name": "SP45 MASSA S.LUCIA SCUOLA ELEMENTARE DIR DISCESA",
    "lat": 38.27030,
    "lon": 15.54800, 
    "url": "https://www.atmmessinaspa.it/smartpoles2.php?palina=1734&rnd=84"
  },
  {
    "name": "SP45 MASSA S.NICOLA KM 12-000 DIR SALITA",
    "lat": 38.27096,
    "lon": 15.54325, 
    "url": "https://www.atmmessinaspa.it/smartpoles2.php?palina=735&rnd=84"
  },
  {
    "name": "SP45 MASSA S.NICOLA KM 12-000 DIR DISCESA",
    "lat": 38.27093,
    "lon": 15.54320, 
    "url": "https://www.atmmessinaspa.it/smartpoles2.php?palina=1735&rnd=84"
  },
  {
    "name": "SP45 MASSA S.GIORGIO - INIZIO ",
    "lat": 38.27391,
    "lon": 15.53710, 
    "url": "https://www.atmmessinaspa.it/smartpoles2.php?palina=1736&rnd=84"
  },
  {
    "name": "SP45 MASSA S.GIORGIO",
    "lat": 38.27522,
    "lon": 15.53701, 
    "url": "https://www.atmmessinaspa.it/smartpoles2.php?palina=737&rnd=84"
  },
  {
    "name": "SP50 MASSA S.GIORGIO 41 DIR DISCESA",
    "lat": 38.27384,
    "lon": 15.53682, 
    "url": "https://www.atmmessinaspa.it/smartpoles2.php?palina=1738&rnd=84"
  },
  {
    "name": "SP50 MASSA S.GIORGIO 41 DIR SALITA",
    "lat": 38.27373,
    "lon": 15.53686, 
    "url": "https://www.atmmessinaspa.it/smartpoles2.php?palina=738&rnd=84"
  },
  {
    "name": "SP50 MASSA S.GIORGIO C.DA VIGNA GR.DE DIR SALITA",
    "lat": 38.27236,
    "lon": 15.53585, 
    "url": "https://www.atmmessinaspa.it/smartpoles2.php?palina=739&rnd=84"
  },
  {
    "name": "SP50 MASSA S.GIORGIO C.DA VIGNA GR.DE DIR DISCESA",
    "lat": 38.27237,
    "lon": 15.53574, 
    "url": "https://www.atmmessinaspa.it/smartpoles2.php?palina=1739&rnd=84"
  },
  {
    "name": "SP50 CASTANEA - INIZIO DIR SALITA",
    "lat": 38.26981,
    "lon": 15.53100, 
    "url": "https://www.atmmessinaspa.it/smartpoles2.php?palina=740&rnd=84"
  },
  {
    "name": "SP50 CASTANEA - INIZIO DIR DISCESA",
    "lat": 38.26980,
    "lon": 15.53090, 
    "url": "https://www.atmmessinaspa.it/smartpoles2.php?palina=1740&rnd=84"
  },
  {
    "name": "SP50 CASTANEA - C.SA CAMARDA - COSTA DIR SALITA",
    "lat": 38.26842,
    "lon": 15.52851, 
    "url": "https://www.atmmessinaspa.it/smartpoles2.php?palina=741&rnd=84"
  },
  {
    "name": "SP50 CASTANEA - C.SA CAMARDA - COSTA DIR DISCESA",
    "lat": 38.26830,
    "lon": 15.52849, 
    "url": "https://www.atmmessinaspa.it/smartpoles2.php?palina=1741&rnd=84"
  },
  {
    "name": "SP50 CASTANEA DIR SALITA",
    "lat": 38.26753,
    "lon": 15.52548, 
    "url": "https://www.atmmessinaspa.it/smartpoles2.php?palina=742&rnd=84"
  },
  {
    "name": "SP50 CASTANEA DIR DISCESA",
    "lat": 38.26740,
    "lon": 15.52540, 
    "url": "https://www.atmmessinaspa.it/smartpoles2.php?palina=1742&rnd=84"
  },
  {
    "name": "SP50 CASTANEA - C.SA VINICOLA DIR SALITA",
    "lat": 38.26591,
    "lon": 15.52340, 
    "url": "https://www.atmmessinaspa.it/smartpoles2.php?palina=743&rnd=84"
  },
  {
    "name": "SP50 CASTANEA - C.SA VINICOLA DIR DISCESA",
    "lat": 38.26580,
    "lon": 15.52340, 
    "url": "https://www.atmmessinaspa.it/smartpoles2.php?palina=1743&rnd=84"
  },
  {
    "name": "SP50 CASTANEA - P.ZZA SS ROSARIO DIR SALITA",
    "lat": 38.26344,
    "lon": 15.52182, 
    "url": "https://www.atmmessinaspa.it/smartpoles2.php?palina=744&rnd=84"
  },
  {
    "name": "SP50 CASTANEA - P.ZZA SS ROSARIO DIR DISCESA",
    "lat": 38.26330,
    "lon": 15.52169, 
    "url": "https://www.atmmessinaspa.it/smartpoles2.php?palina=1744&rnd=84"
  },
  {
    "name": "SP50 CASTANEA - 5A DIR SALITA",
    "lat": 38.26325,
    "lon": 15.52312, 
    "url": "https://www.atmmessinaspa.it/smartpoles2.php?palina=745&rnd=84"
  },
  {
    "name": "SP50 CASTANEA - 5A DIR DISCESA",
    "lat": 38.26321,
    "lon": 15.52300, 
    "url": "https://www.atmmessinaspa.it/smartpoles2.php?palina=1745&rnd=84"
  },
  {
    "name": "SP50 CASTANEA - C.SA POPOLARI DIR SALITA",
    "lat": 38.26187,
    "lon": 15.52448, 
    "url": "https://www.atmmessinaspa.it/smartpoles2.php?palina=746&rnd=84"
  },
  {
    "name": "SP50 CASTANEA - C.SA POPOLARI DIR DISCESA",
    "lat": 38.26184,
    "lon": 15.52434, 
    "url": "https://www.atmmessinaspa.it/smartpoles2.php?palina=1746&rnd=84"
  },
  {
    "name": "SP50 CASTANEA",
    "lat": 38.26030,
    "lon": 15.52390, 
    "url": "https://www.atmmessinaspa.it/smartpoles2.php?palina=1747&rnd=84"
  },
  {
    "name": "SP50 CASTANEA",
    "lat": 38.25983,
    "lon": 15.52382, 
    "url": "https://www.atmmessinaspa.it/smartpoles2.php?palina=748&rnd=84"
  },
  {
    "name": "SP50 S. COSIMO CARABINIERI DIR SALITA",
    "lat": 38.25702,
    "lon": 15.52211, 
    "url": "https://www.atmmessinaspa.it/smartpoles2.php?palina=749&rnd=84"
  },
  {
    "name": "SP50 S. COSIMO CARABINIERI DIR DISCESA",
    "lat": 38.25690,
    "lon": 15.52205, 
    "url": "https://www.atmmessinaspa.it/smartpoles2.php?palina=1749&rnd=84"
  },
  {
    "name": "SP50 S. COSIMO 117 DIR SALITA",
    "lat": 38.25461,
    "lon": 15.52332, 
    "url": "https://www.atmmessinaspa.it/smartpoles2.php?palina=750&rnd=84"
  },
  {
    "name": "SP50 S. COSIMO 117 DIR DISCESA",
    "lat": 38.25450,
    "lon": 15.52340, 
    "url": "https://www.atmmessinaspa.it/smartpoles2.php?palina=1750&rnd=84"
  },
  {
    "name": "SP50 S. COSIMO 125 DIR SALITA",
    "lat": 38.25213,
    "lon": 15.52432, 
    "url": "https://www.atmmessinaspa.it/smartpoles2.php?palina=751&rnd=84"
  },
  {
    "name": "SP50 S. COSIMO 125 DIR DISCESA",
    "lat": 38.25200,
    "lon": 15.52430, 
    "url": "https://www.atmmessinaspa.it/smartpoles2.php?palina=1751&rnd=84"
  },
  {
    "name": "SP50 S. COSIMO C.SA DI RIPOSO DIR SALITA",
    "lat": 38.25112,
    "lon": 15.52691, 
    "url": "https://www.atmmessinaspa.it/smartpoles2.php?palina=752&rnd=84"
  },
  {
    "name": "SP50 S. COSIMO C.SA DI RIPOSO DIR DISCESA",
    "lat": 38.25099,
    "lon": 15.52690, 
    "url": "https://www.atmmessinaspa.it/smartpoles2.php?palina=1752&rnd=84"
  },
  {
    "name": "SP50 C.DA ORBO DIR SALITA",
    "lat": 38.24813,
    "lon": 15.52778, 
    "url": "https://www.atmmessinaspa.it/smartpoles2.php?palina=753&rnd=84"
  },
  {
    "name": "SP50 C.DA ORBO DIR DISCESA",
    "lat": 38.24799,
    "lon": 15.52780, 
    "url": "https://www.atmmessinaspa.it/smartpoles2.php?palina=1753&rnd=84"
  },
  {
    "name": "SP50 DIR SALITA",
    "lat": 38.24111,
    "lon": 15.52539, 
    "url": "https://www.atmmessinaspa.it/smartpoles2.php?palina=754&rnd=84"
  },
  {
    "name": "SP50 DIR DISCESA",
    "lat": 38.24102,
    "lon": 15.52528, 
    "url": "https://www.atmmessinaspa.it/smartpoles2.php?palina=1754&rnd=84"
  },
  {
    "name": "PORTELLA CASTENEA B.VIO SALICE DIR SALITA",
    "lat": 38.23653,
    "lon": 15.52542, 
    "url": "https://www.atmmessinaspa.it/smartpoles2.php?palina=662&rnd=84"
  },
  {
    "name": "PORTELLA CASTENEA B.VIO SALICE DIR DISCESA",
    "lat": 38.23650,
    "lon": 15.52530, 
    "url": "https://www.atmmessinaspa.it/smartpoles2.php?palina=1662&rnd=84"
  },
  {
    "name": "SP51 FER 1 STATUA PADRE PIO DIR SALITA",
    "lat": 38.23771,
    "lon": 15.51540, 
    "url": "https://www.atmmessinaspa.it/smartpoles2.php?palina=663&rnd=84"
  },
  {
    "name": "SP51 FER 1 STATUA PADRE PIO DIR DISCESA",
    "lat": 38.23770,
    "lon": 15.51530, 
    "url": "https://www.atmmessinaspa.it/smartpoles2.php?palina=1663&rnd=84"
  },
  {
    "name": "SP51 FER 2 DIR SALITA",
    "lat": 38.23782,
    "lon": 15.51310, 
    "url": "https://www.atmmessinaspa.it/smartpoles2.php?palina=664&rnd=84"
  },
  {
    "name": "SP51 FER 2 DIR DISCESA",
    "lat": 38.23770,
    "lon": 15.51310, 
    "url": "https://www.atmmessinaspa.it/smartpoles2.php?palina=1664&rnd=84"
  },
  {
    "name": "SP51 FER 3 - CHIESA DIR SALITA",
    "lat": 38.23822,
    "lon": 15.51109, 
    "url": "https://www.atmmessinaspa.it/smartpoles2.php?palina=665&rnd=84"
  },
  {
    "name": "SP51 FER 3 - CHIESA DIR DISCESA",
    "lat": 38.23820,
    "lon": 15.51090, 
    "url": "https://www.atmmessinaspa.it/smartpoles2.php?palina=1665&rnd=84"
  },
  {
    "name": "SP51 FER 4 DIR SALITA",
    "lat": 38.24114,
    "lon": 15.51110, 
    "url": "https://www.atmmessinaspa.it/smartpoles2.php?palina=666&rnd=84"
  },
  {
    "name": "SP51 FER 4 DIR DISCESA",
    "lat": 38.24110,
    "lon": 15.51099, 
    "url": "https://www.atmmessinaspa.it/smartpoles2.php?palina=1666&rnd=84"
  },
  {
    "name": "SP51 FER 5 DIR SALITA",
    "lat": 38.24312,
    "lon": 15.50391, 
    "url": "https://www.atmmessinaspa.it/smartpoles2.php?palina=667&rnd=84"
  },
  {
    "name": "SP51 FER 5 DIR DISCESA",
    "lat": 38.24300,
    "lon": 15.50390, 
    "url": "https://www.atmmessinaspa.it/smartpoles2.php?palina=1667&rnd=84"
  },
  {
    "name": "SP51 FER 6 DIR DISCESA",
    "lat": 38.24459,
    "lon": 15.50298, 
    "url": "https://www.atmmessinaspa.it/smartpoles2.php?palina=1668&rnd=84"
  },
  {
    "name": "SP51 FER 6 DIR SALITA",
    "lat": 38.24485,
    "lon": 15.50286, 
    "url": "https://www.atmmessinaspa.it/smartpoles2.php?palina=668&rnd=84"
  },
  {
    "name": "SP51 FER 7 PRIMA CIMITERO DIR DISCESA",
    "lat": 38.24390,
    "lon": 15.49889, 
    "url": "https://www.atmmessinaspa.it/smartpoles2.php?palina=1669&rnd=84"
  },
  {
    "name": "SP51 FER 7 PRIMA CIMITERO DIR SALITA",
    "lat": 38.24395,
    "lon": 15.49888, 
    "url": "https://www.atmmessinaspa.it/smartpoles2.php?palina=669&rnd=84"
  },
  {
    "name": "SP51 FER 8 DOPO CIMITERO DIR DISCESA",
    "lat": 38.24520,
    "lon": 15.49579, 
    "url": "https://www.atmmessinaspa.it/smartpoles2.php?palina=1670&rnd=84"
  },
  {
    "name": "SP51 FER 8 DOPO CIMITERO DIR SALITA",
    "lat": 38.24524,
    "lon": 15.49592, 
    "url": "https://www.atmmessinaspa.it/smartpoles2.php?palina=670&rnd=84"
  },
  {
    "name": "SP51 FER 9 DIR SALITA",
    "lat": 38.24524,
    "lon": 15.49592, 
    "url": "https://www.atmmessinaspa.it/smartpoles2.php?palina=671&rnd=84"
  },
  {
    "name": "SP51 FER 9 DIR SALITA",
    "lat": 38.24672,
    "lon": 15.49600, 
    "url": "https://www.atmmessinaspa.it/smartpoles2.php?palina=671&rnd=84"
  },
  {
    "name": "SP51 FER 9 DIR DISCESA",
    "lat": 38.24670,
    "lon": 15.49589, 
    "url": "https://www.atmmessinaspa.it/smartpoles2.php?palina=1671&rnd=84"
  },
  {
    "name": "SP51 FER 10 - MADONNINA DIR SALITA",
    "lat": 38.24800,
    "lon": 15.49600, 
    "url": "https://www.atmmessinaspa.it/smartpoles2.php?palina=672&rnd=84"
  },
  {
    "name": "SP51 FER 10 - MADONNINA DIR DISCESA",
    "lat": 38.24791,
    "lon": 15.49600, 
    "url": "https://www.atmmessinaspa.it/smartpoles2.php?palina=1672&rnd=84"
  },
  {
    "name": "SALICE - V. PRINCIPE UMBERTO DIR DISCESA",
    "lat": 38.24902,
    "lon": 15.49711, 
    "url": "https://www.atmmessinaspa.it/smartpoles2.php?palina=1673&rnd=84"
  },
  {
    "name": "SALICE - V. PRINCIPE UMBERTO DIR SALITA",
    "lat": 38.24910,
    "lon": 15.49711, 
    "url": "https://www.atmmessinaspa.it/smartpoles2.php?palina=673&rnd=84"
  },
  {
    "name": "SALICE - V. PRINCIPE UMBERTO 19 DIR DISCESA",
    "lat": 38.24970,
    "lon": 15.49670, 
    "url": "https://www.atmmessinaspa.it/smartpoles2.php?palina=1674&rnd=84"
  },
  {
    "name": "SALICE - V. PRINCIPE UMBERTO 19 DIR SALITA",
    "lat": 38.24972,
    "lon": 15.49682, 
    "url": "https://www.atmmessinaspa.it/smartpoles2.php?palina=674&rnd=84"
  },
  {
    "name": "SALICE - V. PRINCIPE UMBERTO BAR DIR DISCESA",
    "lat": 38.25025,
    "lon": 15.49537, 
    "url": "https://www.atmmessinaspa.it/smartpoles2.php?palina=1675&rnd=84"
  },
  {
    "name": "SALICE - V. PRINCIPE UMBERTO BAR DIR SALITA",
    "lat": 38.25029,
    "lon": 15.49548, 
    "url": "https://www.atmmessinaspa.it/smartpoles2.php?palina=675&rnd=84"
  },
  {
    "name": "SALICE - V. PRINCIPE UMBERTO P.ZZA CHIESA DIR DISCESA",
    "lat": 38.25075,
    "lon": 15.49367, 
    "url": "https://www.atmmessinaspa.it/smartpoles2.php?palina=1676&rnd=84"
  },
  {
    "name": "SALICE - V. PRINCIPE UMBERTO P.ZZA CHIESA DIR SALITA",
    "lat": 38.25082,
    "lon": 15.49384, 
    "url": "https://www.atmmessinaspa.it/smartpoles2.php?palina=676&rnd=84"
  },
  {
    "name": "SALICE - V. PRINCIPE UMBERTO 209 DIR SALITA",
    "lat": 38.25163,
    "lon": 15.49175, 
    "url": "https://www.atmmessinaspa.it/smartpoles2.php?palina=677&rnd=84"
  },
  {
    "name": "SALICE - V. PRINCIPE UMBERTO 209 DIR DISCESA",
    "lat": 38.25160,
    "lon": 15.49159, 
    "url": "https://www.atmmessinaspa.it/smartpoles2.php?palina=1677&rnd=84"
  },
  {
    "name": "SALICE - V. PRINCIPE UMBERTO 239 DIR SALITA",
    "lat": 38.25273,
    "lon": 15.48928, 
    "url": "https://www.atmmessinaspa.it/smartpoles2.php?palina=678&rnd=84"
  },
  {
    "name": "SALICE - V. PRINCIPE UMBERTO 239 DIR DISCESA",
    "lat": 38.25265,
    "lon": 15.48912, 
    "url": "https://www.atmmessinaspa.it/smartpoles2.php?palina=1678&rnd=84"
  },
  {
    "name": "SP51 FER 12 DIR SALITA",
    "lat": 38.25692,
    "lon": 15.48412, 
    "url": "https://www.atmmessinaspa.it/smartpoles2.php?palina=679&rnd=84"
  },
  {
    "name": "SP51 FER 12 DIR DISCESA",
    "lat": 38.25700,
    "lon": 15.48401, 
    "url": "https://www.atmmessinaspa.it/smartpoles2.php?palina=1679&rnd=84"
  },
  {
    "name": "SP51 V.LLA ROMEO DIR SALITA",
    "lat": 38.25852,
    "lon": 15.48183, 
    "url": "https://www.atmmessinaspa.it/smartpoles2.php?palina=680&rnd=84"
  },
  {
    "name": "SP51 V.LLA FERRAU' DIR SALITA",
    "lat": 38.25954,
    "lon": 15.48009, 
    "url": "https://www.atmmessinaspa.it/smartpoles2.php?palina=681&rnd=84"
  },
  {
    "name": "SP51 V.LLA FERRAU' DIR DISCESA",
    "lat": 38.25947,
    "lon": 15.48007, 
    "url": "https://www.atmmessinaspa.it/smartpoles2.php?palina=1681&rnd=84"
  },
  {
    "name": "SP51 - C/O TORRENTE MARMORA DIR SALITA",
    "lat": 38.26484,
    "lon": 15.47404, 
    "url": "https://www.atmmessinaspa.it/smartpoles2.php?palina=682&rnd=84"
  },
  {
    "name": "SP51 - C/O TORRENTE MARMORA DIR DISCESA",
    "lat": 38.26477,
    "lon": 15.47385, 
    "url": "https://www.atmmessinaspa.it/smartpoles2.php?palina=1682&rnd=84"
  },
  {
    "name": "SS113 KM 30-300 DIR DISCESA",
    "lat": 38.26420,
    "lon": 15.47290, 
    "url": "https://www.atmmessinaspa.it/smartpoles2.php?palina=1683&rnd=84"
  },
  {
    "name": "SS113 KM 30-300 DIR SALITA",
    "lat": 38.26434,
    "lon": 15.47291, 
    "url": "https://www.atmmessinaspa.it/smartpoles2.php?palina=683&rnd=84"
  },
  {
    "name": "SS113 KM 30-700 DIR SALITA",
    "lat": 38.26221,
    "lon": 15.46920, 
    "url": "https://www.atmmessinaspa.it/smartpoles2.php?palina=684&rnd=84"
  },
  {
    "name": "SS113 KM 30-700 DIR DISCESA",
    "lat": 38.26211,
    "lon": 15.46920, 
    "url": "https://www.atmmessinaspa.it/smartpoles2.php?palina=1684&rnd=84"
  },
  {
    "name": "SS113 KM 31-100 DIR SALITA",
    "lat": 38.25956,
    "lon": 15.46601, 
    "url": "https://www.atmmessinaspa.it/smartpoles2.php?palina=685&rnd=84"
  },
  {
    "name": "SS113 KM 31-100 DIR DISCESA",
    "lat": 38.25939,
    "lon": 15.46600, 
    "url": "https://www.atmmessinaspa.it/smartpoles2.php?palina=1685&rnd=84"
  },
  {
    "name": "SS113 CAMPANELLA DIR SALITA",
    "lat": 38.25585,
    "lon": 15.46191, 
    "url": "https://www.atmmessinaspa.it/smartpoles2.php?palina=686&rnd=84"
  },
  {
    "name": "SS113 CAMPANELLA DIR DISCESA",
    "lat": 38.25569,
    "lon": 15.46189, 
    "url": "https://www.atmmessinaspa.it/smartpoles2.php?palina=1686&rnd=84"
  },
  {
    "name": "SS113 ORTOLIUZZO DIR SALITA",
    "lat": 38.25223,
    "lon": 15.45781, 
    "url": "https://www.atmmessinaspa.it/smartpoles2.php?palina=687&rnd=84"
  },
  {
    "name": "SS113 ORTOLIUZZO DIR DISCESA",
    "lat": 38.25209,
    "lon": 15.45781, 
    "url": "https://www.atmmessinaspa.it/smartpoles2.php?palina=1687&rnd=84"
  },
  {
    "name": "SS113 PONTEGALLO N23 DIR DISCESA",
    "lat": 38.24955,
    "lon": 15.45474, 
    "url": "https://www.atmmessinaspa.it/smartpoles2.php?palina=1688&rnd=84"
  },
  {
    "name": "SS113 PONTEGALLO N23 DIR SALITA",
    "lat": 38.24855,
    "lon": 15.45466, 
    "url": "https://www.atmmessinaspa.it/smartpoles2.php?palina=688&rnd=84"
  },
  {
    "name": "SS113 PONTEGALLO N44 ",
    "lat": 38.24799,
    "lon": 15.45341, 
    "url": "https://www.atmmessinaspa.it/smartpoles2.php?palina=689&rnd=84"
  },
  {
    "name": "V.LE ANNUNZIATA - S.ELENA DIR SALITA",
    "lat": 38.21867,
    "lon": 15.56290,
    "url": "https://www.atmmessinaspa.it/smartpoles2.php?palina=559&rnd=98"
  },
  {
    "name": "V.LE ANNUNZIATA - S.ELENA DIR DISCESA",
    "lat": 38.21846,
    "lon": 15.56292,
    "url": "https://www.atmmessinaspa.it/smartpoles2.php?palina=1559&rnd=98"
  },
  {
    "name": "V.LE ANNUNZIATA 14 DIR SALITA",
    "lat": 38.21892,
    "lon": 15.56121,
    "url": "https://www.atmmessinaspa.it/smartpoles2.php?palina=560&rnd=98"
  },
  {
    "name": "V.LE ANNUNZIATA 14 DIR DISCESA",
    "lat": 38.21822,
    "lon": 15.56120,
    "url": "https://www.atmmessinaspa.it/smartpoles2.php?palina=1560&rnd=98"
  },
  {
    "name": "V.LE ANNUNZIATA 29 DIR SALITA",
    "lat": 38.21913,
    "lon": 15.55912,
    "url": "https://www.atmmessinaspa.it/smartpoles2.php?palina=561&rnd=98"
  },
  {
    "name": "V.LE ANNUNZIATA 29 DIR DISCESA",
    "lat": 38.21900,
    "lon": 15.55911,
    "url": "https://www.atmmessinaspa.it/smartpoles2.php?palina=1561&rnd=98"
  },
  {
    "name": "V.LE ANNUNZIATA 44 DIR SALITA",
    "lat": 38.21962,
    "lon": 15.55789,
    "url": "https://www.atmmessinaspa.it/smartpoles2.php?palina=562&rnd=98"
  },
  {
    "name": "V.LE ANNUNZIATA 44 DIR DISCESA",
    "lat": 38.21951,
    "lon": 15.55792,
    "url": "https://www.atmmessinaspa.it/smartpoles2.php?palina=1562&rnd=98"
  },
  {
    "name": "V.LE ANNUNZIATA 69 DIR SALITA",
    "lat": 38.21999,
    "lon": 15.55736,
    "url": "https://www.atmmessinaspa.it/smartpoles2.php?palina=563&rnd=98"
  },
  {
    "name": "V.LE ANNUNZIATA 69 DIR DISCESA",
    "lat": 38.21990,
    "lon": 15.55720,
    "url": "https://www.atmmessinaspa.it/smartpoles2.php?palina=1563&rnd=98"
  },
  {
    "name": "V. ANNUNZIATA 101A - SC. ELEMENTARE DIR DISCESA",
    "lat": 38.22226,
    "lon": 15.55398,
    "url": "https://www.atmmessinaspa.it/smartpoles2.php?palina=1576&rnd=98"
  },
  {
    "name": "SP44 - V.A. GIUFFRE' ",
    "lat": 38.22571,
    "lon": 15.55363,
    "url": "https://www.atmmessinaspa.it/smartpoles2.php?palina=1570&rnd=98"
  },
  {
    "name": "SP44 - STRADA MILITARE PER CAMPO ITALIA 3 DIR SALITA",
    "lat": 38.22702,
    "lon": 15.55432,
    "url": "https://www.atmmessinaspa.it/smartpoles2.php?palina=569&rnd=98"
  },
  {
    "name": "SP44 - STRADA MILITARE PER CAMPO ITALIA 3 DIR DISCESA",
    "lat": 38.22700,
    "lon": 15.55420,
    "url": "https://www.atmmessinaspa.it/smartpoles2.php?palina=1569&rnd=98"
  },
  {
    "name": "SP44 - STRADA MILITARE PER CAMPO ITALIA 2 DIR SALITA",
    "lat": 38.22811,
    "lon": 15.55410,
    "url": "https://www.atmmessinaspa.it/smartpoles2.php?palina=568&rnd=98"
  },
  {
    "name": "SP44 - STRADA MILITARE PER CAMPO ITALIA 1 DIR SALITA",
    "lat": 38.22841,
    "lon": 15.55538,
    "url": "https://www.atmmessinaspa.it/smartpoles2.php?palina=567&rnd=98"
  },
  {
    "name": "SP44 - STRADA MILITARE PER CAMPO ITALIA 1 DIR DISCESA",
    "lat": 38.22849,
    "lon": 15.55532,
    "url": "https://www.atmmessinaspa.it/smartpoles2.php?palina=1567&rnd=98"
  },
  {
    "name": "C.DA CITOLA 20",
    "lat": 38.22931,
    "lon": 15.55550,
    "url": "https://www.atmmessinaspa.it/smartpoles2.php?palina=1540&rnd=98"
  },
  {
    "name": "SP44 C.DA CITOLA",
    "lat": 38.23081,
    "lon": 15.55571,
    "url": "https://www.atmmessinaspa.it/smartpoles2.php?palina=541&rnd=98"
  },
  {
    "name": "C.DA SORBA DIR SALITA",
    "lat": 38.23277,
    "lon": 15.55488,
    "url": "https://www.atmmessinaspa.it/smartpoles2.php?palina=542&rnd=98"
  },
  {
    "name": "C.DA SORBA DIR DISCESA",
    "lat": 38.23270,
    "lon": 15.55480,
    "url": "https://www.atmmessinaspa.it/smartpoles2.php?palina=1542&rnd=98"
  },
  {
    "name": "SP44 - RIF LA STERZA DIR SALITA",
    "lat": 38.23480,
    "lon": 15.55381,
    "url": "https://www.atmmessinaspa.it/smartpoles2.php?palina=543&rnd=98"
  },
  {
    "name": "SP44 - RIF LA STERZA DIR DISCESA",
    "lat": 38.23472,
    "lon": 15.55376,
    "url": "https://www.atmmessinaspa.it/smartpoles2.php?palina=543&rnd=98"
  },
  {
    "name": "SP44 - CAMPOITALIA COOP. ALDEBARAN DIR SALITA",
    "lat": 38.23661,
    "lon": 15.55330,
    "url": "https://www.atmmessinaspa.it/smartpoles2.php?palina=544&rnd=98"
  },
  {
    "name": "SP44 - CAMPOITALIA COOP. ALDEBARAN DIR DISCESA",
    "lat": 38.23660,
    "lon": 15.55320,
    "url": "https://www.atmmessinaspa.it/smartpoles2.php?palina=1544&rnd=98"
  },
  {
    "name": "SP44 - CAMPOITALIA COOP. LE TUIE DIR SALITA",
    "lat": 38.23680,
    "lon": 15.55378,
    "url": "https://www.atmmessinaspa.it/smartpoles2.php?palina=545&rnd=98"
  },
  {
    "name": "SP44 - CAMPOITALIA COOP. LE TUIE DIR DISCESA",
    "lat": 38.23694,
    "lon": 15.55380,
    "url": "https://www.atmmessinaspa.it/smartpoles2.php?palina=1545&rnd=98"
  },
  {
    "name": "SP44 - CAMPOITALIA COOP. ATHENA DIR SALITA",
    "lat": 38.23720,
    "lon": 15.55461,
    "url": "https://www.atmmessinaspa.it/smartpoles2.php?palina=546&rnd=98"
  },
   {
    "name": "SP44 - CAMPOITALIA COOP. ATHENA DIR DISCESA",
    "lat": 38.23709,
    "lon": 15.55430,
    "url": "https://www.atmmessinaspa.it/smartpoles2.php?palina=1546&rnd=98"
  },
  {
    "name": "SP44 - CAMPOITALIA COOP. ITALIA",
    "lat": 38.23876,
    "lon": 15.55426,
    "url": "https://www.atmmessinaspa.it/smartpoles2.php?palina=1547&rnd=98"
  },
  {
    "name": "SP44 - 16 DIR SALITA",
    "lat": 38.23740,
    "lon": 15.55650,
    "url": "https://www.atmmessinaspa.it/smartpoles2.php?palina=548&rnd=98"
  },
  {
    "name": "SP44 - 16 DIR DISCESA",
    "lat": 38.23741,
    "lon": 15.55662,
    "url": "https://www.atmmessinaspa.it/smartpoles2.php?palina=1548&rnd=98"
  },
  {
    "name": "PORTELLA ARENA",
    "lat": 38.24281,
    "lon": 15.55550,
    "url": "https://www.atmmessinaspa.it/smartpoles2.php?palina=549&rnd=98"
  },
  {
    "name": "V.LE LEONARDI - SCUOLA ELEMENTARE DIR SALITA",
    "lat": 38.22102,
    "lon": 15.55780,
    "url": "https://www.atmmessinaspa.it/smartpoles2.php?palina=534&rnd=98"
  },
  {
    "name": "V.LE LEONARDI - SCUOLA ELEMENTARE DIR DISCESA",
    "lat": 38.22100,
    "lon": 15.55770,
    "url": "https://www.atmmessinaspa.it/smartpoles2.php?palina=1534&rnd=98"
  },
  {
    "name": "V.LE LEONARDI 42 DIR SALITA",
    "lat": 38.22208,
    "lon": 15.55706,
    "url": "https://www.atmmessinaspa.it/smartpoles2.php?palina=535&rnd=98"
  },
  {
    "name": "V.LE LEONARDI 42 DIR DISCESA",
    "lat": 38.22203,
    "lon": 15.55701,
    "url": "https://www.atmmessinaspa.it/smartpoles2.php?palina=1535&rnd=98"
  },
  {
    "name": "V.LE LEONARDI DIR SALITA",
    "lat": 38.22458,
    "lon": 15.55647,
    "url": "https://www.atmmessinaspa.it/smartpoles2.php?palina=993&rnd=98"
  },
  {
    "name": "V.LE LEONARDI DIR DISCESA",
    "lat": 38.22464,
    "lon": 15.55639,
    "url": "https://www.atmmessinaspa.it/smartpoles2.php?palina=993&rnd=98"
  },
  {
    "name": "V.FIORE",
    "lat": 38.22121,
    "lon": 15.55852,
    "url": "https://www.atmmessinaspa.it/smartpoles2.php?palina=1564&rnd=98"
  },
  {
    "name": "V.FIORE - STATUA PADRE PIO DIR SALITA",
    "lat": 38.22291,
    "lon": 15.55971,
    "url": "https://www.atmmessinaspa.it/smartpoles2.php?palina=565&rnd=98"
  },
  {
    "name": "V.FIORE - STATUA PADRE PIO DIR DISCESA",
    "lat": 38.22290,
    "lon": 15.55960,
    "url": "https://www.atmmessinaspa.it/smartpoles2.php?palina=1565&rnd=98"
  },
  {
    "name": "V.FIORE - COMP. I FALCHI DIR SALITA",
    "lat": 38.22395,
    "lon": 15.55903,
    "url": "https://www.atmmessinaspa.it/smartpoles2.php?palina=566&rnd=98"
  },
  {
    "name": "V.FIORE - COMP. I FALCHI DIR DISCESA",
    "lat": 38.22379,
    "lon": 15.55901,
    "url": "https://www.atmmessinaspa.it/smartpoles2.php?palina=1566&rnd=98"
  },
  {
    "name": "V.FIORE - IST. BASILE DIR DISCESA",
    "lat": 38.22472,
    "lon": 15.55673,
    "url": "https://www.atmmessinaspa.it/smartpoles2.php?palina=1536&rnd=98"
  },
  {
    "name": "V.FIORE - IST. BASILE DIR SALITA",
    "lat": 38.22482,
    "lon": 15.55667,
    "url": "https://www.atmmessinaspa.it/smartpoles2.php?palina=536&rnd=98"
  },
  {
    "name": "V.G.A. BOSURGI 7",
    "lat": 38.22647,
    "lon": 15.55536,
    "url": "https://www.atmmessinaspa.it/smartpoles2.php?palina=537&rnd=98"
  },
  {
    "name": "V.G.A. BOSURGI - COMP EOLO DIR SALITA",
    "lat": 38.22730,
    "lon": 15.55650,
    "url": "https://www.atmmessinaspa.it/smartpoles2.php?palina=538&rnd=98"
  },
  {
    "name": "V.G.A. BOSURGI - COMP EOLO DIR DISCESA",
    "lat": 38.22721,
    "lon": 15.55651,
    "url": "https://www.atmmessinaspa.it/smartpoles2.php?palina=1538&rnd=98"
  },
  {
    "name": "SS ANNUNZIATA 414 DIR SALITA",
    "lat": 38.22373,
    "lon": 15.55301,
    "url": "https://www.atmmessinaspa.it/smartpoles2.php?palina=572&rnd=98"
  },
  {
    "name": "SS ANNUNZIATA 414 DIR DISCESA",
    "lat": 38.22363,
    "lon": 15.55286,
    "url": "https://www.atmmessinaspa.it/smartpoles2.php?palina=1572&rnd=98"
  },
  {
    "name": "SS ANNUNZIATA C.DA CONTE DIR SALITA",
    "lat": 38.22454,
    "lon": 15.55167,
    "url": "https://www.atmmessinaspa.it/smartpoles2.php?palina=573&rnd=98"
  },
  {
    "name": "SS ANNUNZIATA C.DA CONTE DIR DISCESA",
    "lat": 38.22441,
    "lon": 15.55150,
    "url": "https://www.atmmessinaspa.it/smartpoles2.php?palina=1573&rnd=98"
  },
  {
    "name": "V.SOFIA IDELSON - COOP SPERONE",
    "lat": 38.22402,
    "lon": 15.54980,
    "url": "https://www.atmmessinaspa.it/smartpoles2.php?palina=575&rnd=98"
  },
  {
    "name": "V.SOFIA IDELSON - C.DA P.NO DEI GRECI",
    "lat": 38.22493,
    "lon": 15.54750,
    "url": "https://www.atmmessinaspa.it/smartpoles2.php?palina=574&rnd=98"
  },
  {
    "name": "V.LE GIOVANNI PALATUCCI - PISCINA UNIME",
    "lat": 38.22493,
    "lon": 15.54750,
    "url": "https://www.atmmessinaspa.it/smartpoles2.php?palina=&rnd=98"
  },
  {
    "name": "V.LE GIOVANNI PALATUCCI - PALASPORT UNIME",
    "lat": 38.22493,
    "lon": 15.54750,
    "url": "https://www.atmmessinaspa.it/smartpoles2.php?palina=2011&rnd=98"
  },
  {
    "name": "RESID.ZE UNIVERSITARIE",
    "lat": 38.22800,
    "lon": 15.55032,
    "url": "https://www.atmmessinaspa.it/smartpoles2.php?palina=2015&rnd=98"
  },
  {
    "name": "V.LUIGI EINAUDI 14 CAMPO DA CALCIO UNIME",
    "lat": 38.22862,
    "lon": 15.55162,
    "url": "https://www.atmmessinaspa.it/smartpoles2.php?palina=2010&rnd=98"
  },
  {
    "name": "V.LUIGI EINAUDI 14 CAMPO DA TENNIS UNIME",
    "lat": 38.22984,
    "lon": 15.55203,
    "url": "https://www.atmmessinaspa.it/smartpoles2.php?palina=2009&rnd=98"
  },
  {
    "name": "CITT.LLA UNIVERSITARIA",
    "lat": 38.22992,
    "lon": 15.55242,
    "url": "https://www.atmmessinaspa.it/smartpoles2.php?palina=1981&rnd=98"
  },
  {
    "name": "DIP. DI CIVILTA' ANTICHE E MODERNE",
    "lat": 38.23062,
    "lon": 15.55135,
    "url": "https://www.atmmessinaspa.it/smartpoles2.php?palina=2008&rnd=98"
  }
]



