[
  {
    "name": "CAPOLINEA TORRE FARO",
    "lat": 38.265545,
    "lon": 15.638842,
    "url": "https://www.atmmessinaspa.it/smartpoles2.php?palina=832&rnd=24"
  },
  {
    "name": "CARONTE DIR CENTRO",
    "lat": 38.210917,
    "lon": 15.561099,
    "url": "https://www.atmmessinaspa.it/smartpoles2.php?palina=1555&rnd=87"
  },
  {
    "name": "CARONTE DIR LAGO",
    "lat": 38.21091,
    "lon": 15.561294,
    "url": "https://www.atmmessinaspa.it/smartpoles2.php?palina=555&rnd=85"
  },
  {
    "name": "V. CONSOLARE POMPEA 1497 DIR CENTRO",
    "lat": 38.251942,
    "lon": 15.594482,
    "url": "https://www.atmmessinaspa.it/smartpoles2.php?palina=1756&rnd=19"
  },
  {
    "name": "V. CONSOLARE POMPEA 1497 DIR LAGO",
    "lat": 38.251945,
    "lon": 15.594574,
    "url": "https://www.atmmessinaspa.it/smartpoles2.php?palina=756&rnd=27"
  },
  {
    "name": "V. CESARE BATTISTI 215",
    "lat": 38.187321,
    "lon": 15.552785,
    "url": "https://www.atmmessinaspa.it/smartpoles2.php?palina=245&rnd=87"
  },
  {
    "name": "DECO V.CONSOLARE POMPEA DIR CENTRO",
    "lat": 38.25262,
    "lon": 15.59651,
    "url": "https://www.atmmessinaspa.it/smartpoles2.php?palina=1757&rnd=67"
  },
  {
    "name": "DECO V. CONSOLARE POMPEA DIR LAGO",
    "lat": 38.252538,
    "lon": 15.596598,
    "url": "https://www.atmmessinaspa.it/smartpoles2.php?palina=757&rnd=67"
  },
  {
    "name": "DESPAR ARCERI LATO DISCESA",
    "lat": 38.259321,
    "lon": 15.60237,
    "url": "https://www.atmmessinaspa.it/smartpoles2.php?palina=1866&rnd=67"
  },
  {
    "name": "DISCESA UNI PAPARDO DIR CENTRO",
    "lat": 38.255635,
    "lon": 15.602252,
    "url": "https://www.atmmessinaspa.it/smartpoles2.php?palina=1759&rnd=71"
  },
  {
    "name": "FARMACIA GRASSO DIR LAGO",
    "lat": 38.190264,
    "lon": 15.552101,
    "url": "https://www.atmmessinaspa.it/smartpoles2.php?palina=510&rnd=71"
  },
  {
    "name": "FORESTALE",
    "lat": 38.187466,
    "lon": 15.555154,
    "url": "https://www.atmmessinaspa.it/smartpoles2.php?palina=1246&rnd=91"
  },
  {
    "name": "MC TREMESTIERI DIR CENTRO",
    "lat": 38.153206,
    "lon": 15.530892,
    "url": "https://www.atmmessinaspa.it/smartpoles2.php?palina=1309&rnd=91"
  },
  {
    "name": "POLICLINICO DIR CENTRO",
    "lat": 38.162104,
    "lon": 15.538406,
    "url": "https://www.atmmessinaspa.it/smartpoles2.php?palina=116&rnd=98"
  },
  {
    "name": "SALITA ANNUNZIATA",
    "lat": 38.218223,
    "lon": 15.564862,
    "url": "https://www.atmmessinaspa.it/smartpoles2.php?palina=558&rnd=98"
  },
  {
    "name": "SEMAFORO PAPARDO DIR CENTRO",
    "lat": 38.256718,
    "lon": 15.604886,
    "url": "https://www.atmmessinaspa.it/smartpoles2.php?palina=1760&rnd=67"
  },
  {
    "name": "STAZIONE CEN DIR FARO",
    "lat": 38.185786,
    "lon": 15.559891,
    "url": "https://www.atmmessinaspa.it/smartpoles2.php?palina=1125&rnd=48"
  },
  {
    "name": "TABBACCHI SANT'AGATA DIR CENTRO",
    "lat": 38.253961,
    "lon": 15.599691,
    "url": "https://www.atmmessinaspa.it/smartpoles2.php?palina=1758&rnd=84"
  },
  {
    "name": "TABBACCHI SANT'AGATA DIR LAGO",
    "lat": 38.254035,
    "lon": 15.599924,
    "url": "https://www.atmmessinaspa.it/smartpoles2.php?palina=758&rnd=84"
  },
  {
    "name": "TRIBUNALE",
    "lat": 38.188759,
    "lon": 15.552845,
    "url": "https://www.atmmessinaspa.it/smartpoles2.php?palina=129&rnd=12"
  },
  {
    "name": "UNI PAPARDO",
    "lat": 38.261337,
    "lon": 15.59965,
    "url": "https://www.atmmessinaspa.it/smartpoles2.php?palina=863&rnd=55"
  },
  {
    "name": "V. CESERE BATTISTI UNI",
    "lat": 38.188793,
    "lon": 15.553908,
    "url": "https://www.atmmessinaspa.it/smartpoles2.php?palina=103&rnd=87"
  },
  {
    "name": "MUSEO DIR LAGO",
    "lat": 38.2171857,
    "lon": 15.5655006,
    "url": "https://www.atmmessinaspa.it/smartpoles2.php?palina=557&rnd=84"
  },
  {
    "name": "MUSEO DIR CENTRO",
    "lat": 38.2165316,
    "lon": 15.5644549,
    "url": "https://www.atmmessinaspa.it/smartpoles2.php?palina=1557&rnd=84"
  },
  {
    "name": "V. CESARE BATTISTI - P. LEPANTO",
    "lat": 38.1915815,
    "lon": 15.5561411,
    "url": "https://www.atmmessinaspa.it/smartpoles2.php?palina=148&rnd=84"
  },
  {
    "name": "TROCADERO DIR CENTRO",
    "lat": 38.2381817,
    "lon": 15.5778133,
    "url": "https://www.atmmessinaspa.it/smartpoles2.php?palina=1699&rnd=84"
  },
  {
    "name": "TROCADERO DIR LAGO",
    "lat": 38.2380945,
    "lon": 15.5777359,
    "url": "https://www.atmmessinaspa.it/smartpoles2.php?palina=699&rnd=84"
  },
  {
    "name": "V. CONSOLARE POMPEA 17 DIR LAGO",
    "lat": 38.2194025,
    "lon": 15.5658121,
    "url": "https://www.atmmessinaspa.it/smartpoles2.php?palina=691&rnd=84"
  },
  {
    "name": "V. CONSOLARE POMPEA 17 DIR CENTRO",
    "lat": 38.2192946,
    "lon": 15.5657917,
    "url": "https://www.atmmessinaspa.it/smartpoles2.php?palina=1691&rnd=84"
  },
  {
    "name": "V. FIUMARA GUARDIA - AUTODROMO DIR CENTRO",
    "lat": 38.25046839269177,
    "lon": 15.590353687145155,
    "url": "https://www.atmmessinaspa.it/smartpoles2.php?palina=1755&rnd=84"
  },
  {
    "name": "V. FIUMARA GUARDIA - AUTODROMO DIR LAGO",
    "lat": 38.250551629664365,
    "lon": 15.591066726324893,
    "url": "https://www.atmmessinaspa.it/smartpoles2.php?palina=755&rnd=84"
  },
  {
    "name": "V.LE ANNUNZIATA - SCUOLA VITTORINI DIR CENTRO",
    "lat": 38.2238092,
    "lon": 15.5534401,
    "url": "https://www.atmmessinaspa.it/smartpoles2.php?palina=571&rnd=84"
  },
  {
    "name": "V.LE ANNUNZIATA - SCUOLA VITTORINI DIR UNI",
    "lat": 38.223801,
    "lon": 15.553531,
    "url": "https://www.atmmessinaspa.it/smartpoles2.php?palina=1571&rnd=84"
  },
  {
    "name": "V. GARIBALDI - TORRENTE TRAPANI DIR CENTRO",
    "lat": 38.2056637,
    "lon": 15.5580666,
    "url": "https://www.atmmessinaspa.it/smartpoles2.php?palina=550&rnd=84"
  },
  {
    "name": "V. CONSOLARE POMPEA 1955 DIR CENTRO",
    "lat": 38.26292265500724,
    "lon": 15.621517887013757,
    "url": "https://www.atmmessinaspa.it/smartpoles2.php?palina=1766&rnd=84"
  }, 
  {
    "name": "V. CONSOLARE POMPEA 1955 DIR LAGO",
    "lat": 38.26281578683574,
    "lon": 15.621502948677731,
    "url": "https://www.atmmessinaspa.it/smartpoles2.php?palina=766&rnd=84"
  }, 
  {
    "name": "V. CONSOLARE POMPEA 1929 DIR LAGO",
    "lat": 38.26211179503126,
    "lon": 15.618105932808044,
    "url": "https://www.atmmessinaspa.it/smartpoles2.php?palina=765&rnd=84"
  },   
  {
    "name": "V. CONSOLARE POMPEA 1929 DIR CENTRO",
    "lat": 38.26224521083938,
    "lon": 15.618089610236815,
    "url": "https://www.atmmessinaspa.it/smartpoles2.php?palina=1765&rnd=84"
  },
  {
    "name": "V. GARIBALDI - VILLA MAZZINI DIR LAGO",
    "lat": 38.19800456169704,
    "lon": 15.5574684385418,
    "url": "https://www.atmmessinaspa.it/smartpoles2.php?palina=514&rnd=84"
  },
  {
    "name": "V.LE LIBERTA' - RINGO DIR LAGO",
    "lat": 38.213546470506365,
    "lon": 15.562496222552126, 
    "url": "https://www.atmmessinaspa.it/smartpoles2.php?palina=556&rnd=84"
  },
  {
    "name": "V.LE LIBERTA' - RINGO DIR CENTRO",
    "lat": 38.213592834175444,
    "lon": 15.562222637233344, 
    "url": "https://www.atmmessinaspa.it/smartpoles2.php?palina=1556&rnd=84"
  },
  {
    "name": "MUSEO DIR LAGO",
    "lat": 38.21723018275719,
    "lon": 15.565505661067919, 
    "url": "https://www.atmmessinaspa.it/smartpoles2.php?palina=557&rnd=84"
  },
  {
    "name": "MUSEO DIR CENTRO",
    "lat": 38.216616682706544,
    "lon": 15.564453899856828, 
    "url": "https://www.atmmessinaspa.it/smartpoles2.php?palina=1557&rnd=84"
  },
  {
    "name": "MUSEO DIR CENTRO",
    "lat": 38.216616682706544,
    "lon": 15.564453899856828, 
    "url": "https://www.atmmessinaspa.it/smartpoles2.php?palina=1557&rnd=84"
  },
  {
    "name": "V. CONSOLARE POMPEA 45 DIR LAGO",
    "lat": 38.22154,
    "lon": 15.56569, 
    "url": "https://www.atmmessinaspa.it/smartpoles2.php?palina=692&rnd=84"
  },
  {
    "name": "V. CONSOLARE POMPEA 45 DIR CENTRO",
    "lat": 38.22154,
    "lon": 15.56558, 
    "url": "https://www.atmmessinaspa.it/smartpoles2.php?palina=1692&rnd=84"
  },
  {
    "name": "V. CONSOLARE POMPEA 245 DIR LAGO",
    "lat": 38.22400,
    "lon": 15.56676, 
    "url": "https://www.atmmessinaspa.it/smartpoles2.php?palina=693&rnd=84"
  },
  {
    "name": "V. CONSOLARE POMPEA 245 DIR CENTRO",
    "lat": 38.22404,
    "lon": 15.56666, 
    "url": "https://www.atmmessinaspa.it/smartpoles2.php?palina=1693&rnd=84"
  },
  {
    "name": "PARADISO POSTE DIR LAGO",
    "lat": 38.22661,
    "lon": 15.56850, 
    "url": "https://www.atmmessinaspa.it/smartpoles2.php?palina=694&rnd=84"
  },
  {
    "name": "PARADISO POSTE DIR CENTRO",
    "lat": 38.22661,
    "lon": 15.56840, 
    "url": "https://www.atmmessinaspa.it/smartpoles2.php?palina=1694&rnd=84"
  },
  {
    "name": "CONT - POMPEA N 239 DIR CENTRO",
    "lat": 38.22921,
    "lon": 15.56970, 
    "url": "https://www.atmmessinaspa.it/smartpoles2.php?palina=1695&rnd=84"
  },
  {
    "name": "CONT - POMPEA N 239 DIR LAGO",
    "lat": 38.22921,
    "lon": 15.56980, 
    "url": "https://www.atmmessinaspa.it/smartpoles2.php?palina=695&rnd=84"
  },
  {
    "name": "CONT - POMPEA N 419 DIR CENTRO",
    "lat": 38.23231,
    "lon": 15.57091, 
    "url": "https://www.atmmessinaspa.it/smartpoles2.php?palina=1696&rnd=84"
  },
  {
    "name": "CONT - POMPEA N 419 DIR LAGO",
    "lat": 38.23231,
    "lon": 15.57100, 
    "url": "https://www.atmmessinaspa.it/smartpoles2.php?palina=696&rnd=84"
  },
  {
    "name": "CONT - V.LLA BOSURGI DIR LAGO",
    "lat": 38.23432,
    "lon": 15.57210, 
    "url": "https://www.atmmessinaspa.it/smartpoles2.php?palina=697&rnd=84"
  },
  {
    "name": "CONT - V.LLA BOSURGI DIR CENTRO",
    "lat": 38.23432,
    "lon": 15.57201, 
    "url": "https://www.atmmessinaspa.it/smartpoles2.php?palina=1697&rnd=84"
  },
  {
    "name": "PACE V. CONSOLARE POMPEA DIR LAGO",
    "lat": 38.23671,
    "lon": 15.57530, 
    "url": "https://www.atmmessinaspa.it/smartpoles2.php?palina=698&rnd=84"
  },
  {
    "name": "TORR.PACE DIR CENTRO",
    "lat": 38.23671,
    "lon": 15.57530, 
    "url": "https://www.atmmessinaspa.it/smartpoles2.php?palina=1698&rnd=84"
  },
  {
    "name": "GROTTE - POMPEA N 836 DIR LAGO",
    "lat": 38.24192,
    "lon": 15.58000, 
    "url": "https://www.atmmessinaspa.it/smartpoles2.php?palina=700&rnd=84"
  },
  {
    "name": "GROTTE - POMPEA N 836 DIR CENTRO",
    "lat": 38.24190,
    "lon": 15.57990, 
    "url": "https://www.atmmessinaspa.it/smartpoles2.php?palina=1700&rnd=84"
  },
  {
    "name": "GROTTE - C.DA FORTINO DIR LAGO",
    "lat": 38.24423,
    "lon": 15.58090, 
    "url": "https://www.atmmessinaspa.it/smartpoles2.php?palina=701&rnd=84"
  },
  {
    "name": "GROTTE - C.DA FORTINO DIR CENTRO",
    "lat": 38.24420,
    "lon": 15.58080, 
    "url": "https://www.atmmessinaspa.it/smartpoles2.php?palina=1701&rnd=84"
  },
  {
    "name": "GROTTE - POMPEA N 1129 DIR LAGO",
    "lat": 38.24641,
    "lon": 15.58280, 
    "url": "https://www.atmmessinaspa.it/smartpoles2.php?palina=702&rnd=84"
  },
  {
    "name": "GROTTE - POMPEA N 1129 DIR CENTRO",
    "lat": 38.24640,
    "lon": 15.58270, 
    "url": "https://www.atmmessinaspa.it/smartpoles2.php?palina=1702&rnd=84"
  },
  {
    "name": "GROTTE - POMPEA N 1279 DIR LAGO",
    "lat": 38.24792,
    "lon": 15.58471, 
    "url": "https://www.atmmessinaspa.it/smartpoles2.php?palina=703&rnd=84"
  },
  {
    "name": "GROTTE - POMPEA N 1279 DIR CENTRO",
    "lat": 38.24791,
    "lon": 15.58460, 
    "url": "https://www.atmmessinaspa.it/smartpoles2.php?palina=1703&rnd=84"
  },
  {
    "name": "GROTTE - POMPEA N 1349 DIR LAGO",
    "lat": 38.24941,
    "lon": 15.58770, 
    "url": "https://www.atmmessinaspa.it/smartpoles2.php?palina=704&rnd=84"
  },
  {
    "name": "GROTTE - POMPEA N 1349 DIR CENTRO",
    "lat": 38.24940,
    "lon": 15.58760, 
    "url": "https://www.atmmessinaspa.it/smartpoles2.php?palina=1704&rnd=84"
  },
  {
    "name": "V. CONSOLARE POMPEA 1681 DIR LAGO",
    "lat": 38.25575,
    "lon": 15.60278, 
    "url": "https://www.atmmessinaspa.it/smartpoles2.php?palina=759&rnd=84"
  },
  {
    "name": "SEMAFORO PAPARDO DIR LAGO",
    "lat": 38.25664,
    "lon": 15.60517, 
    "url": "https://www.atmmessinaspa.it/smartpoles2.php?palina=760&rnd=84"
  },
  {
    "name": "GANZIRRI S.PETRARCA DIR LAGO",
    "lat": 38.25772,
    "lon": 15.60670, 
    "url": "https://www.atmmessinaspa.it/smartpoles2.php?palina=761&rnd=84"
  },
  {
    "name": "GANZIRRI SC.PETRARCA DIR CENTRO",
    "lat": 38.25798,
    "lon": 15.60691, 
    "url": "https://www.atmmessinaspa.it/smartpoles2.php?palina=1761&rnd=84"
  },
  {
    "name": "GANZIRRI V. PETRARO DIR LAGO",
    "lat": 38.25962,
    "lon": 15.60961, 
    "url": "https://www.atmmessinaspa.it/smartpoles2.php?palina=762&rnd=84"
  },
  {
    "name": "GANZIRRI V. PETRARO DIR CENTRO",
    "lat": 38.25960,
    "lon": 15.60950, 
    "url": "https://www.atmmessinaspa.it/smartpoles2.php?palina=1762&rnd=84"
  },
  {
    "name": "V. CONSOLARE POMPEA 1861 DIR LAGO",
    "lat": 38.26072,
    "lon": 15.61240, 
    "url": "https://www.atmmessinaspa.it/smartpoles2.php?palina=763&rnd=84"
  },
  {
    "name": "GANZIRRI ORTOPEDICO DIR LAGO",
    "lat": 38.26131,
    "lon": 15.61514, 
    "url": "https://www.atmmessinaspa.it/smartpoles2.php?palina=764&rnd=84"
  },
  {
    "name": "GANZIRRI ORTOPEDICO DIR CENTRO",
    "lat": 38.26131,
    "lon": 15.61500, 
    "url": "https://www.atmmessinaspa.it/smartpoles2.php?palina=1764&rnd=84"
  },
  {
    "name": "GANZIRRI V. CONSOLARE POMPEA 382 DIR LAGO",
    "lat": 38.26444,
    "lon": 15.62710, 
    "url": "https://www.atmmessinaspa.it/smartpoles2.php?palina=767&rnd=84"
  },
  {
    "name": "GANZIRRI V. CONSOLARE POMPEA 382 DIR CENTRO",
    "lat": 38.26441,
    "lon": 15.62700, 
    "url": "https://www.atmmessinaspa.it/smartpoles2.php?palina=1767&rnd=84"
  },
  {
    "name": "V. CONSOLARE POMPEA 2055 DIR LAGO",
    "lat": 38.26595,
    "lon": 15.63083, 
    "url": "https://www.atmmessinaspa.it/smartpoles2.php?palina=768&rnd=84"
  },
  {
    "name": "V. CONSOLARE POMPEA 2055 DIR CENTRO",
    "lat": 38.26593,
    "lon": 15.63071, 
    "url": "https://www.atmmessinaspa.it/smartpoles2.php?palina=1768&rnd=84"
  },
  {
    "name": "V. CONSOLARE POMPEA 2095 DIR LAGO",
    "lat": 38.26652,
    "lon": 15.63239, 
    "url": "https://www.atmmessinaspa.it/smartpoles2.php?palina=769&rnd=84"
  },
  {
    "name": "V. CONSOLARE POMPEA 2095 DIR CENTRO",
    "lat": 38.26653,
    "lon": 15.63230, 
    "url": "https://www.atmmessinaspa.it/smartpoles2.php?palina=1769&rnd=84"
  },
  {
    "name": "ROTOND. GRANATARI",
    "lat": 38.26704,
    "lon": 15.63389, 
    "url": "https://www.atmmessinaspa.it/smartpoles2.php?palina=1000&rnd=84"
  },
  {
    "name": "LAGO GRANDE 2",
    "lat": 38.25902,
    "lon": 15.60870, 
    "url": "https://www.atmmessinaspa.it/smartpoles2.php?palina=822&rnd=84"
  },
  {
    "name": "LAGO GRANDE 41",
    "lat": 38.25772,
    "lon": 15.61041, 
    "url": "https://www.atmmessinaspa.it/smartpoles2.php?palina=823&rnd=84"
  },
  {
    "name": "LAGO GRANDE 70",
    "lat": 38.25832,
    "lon": 15.61289, 
    "url": "https://www.atmmessinaspa.it/smartpoles2.php?palina=824&rnd=84"
  },
  {
    "name": "LAGO GRANDE 87",
    "lat": 38.25892,
    "lon": 15.61511, 
    "url": "https://www.atmmessinaspa.it/smartpoles2.php?palina=825&rnd=84"
  },
  {
    "name": "LAGO GRANDE 98",
    "lat": 38.26032,
    "lon": 15.61810, 
    "url": "https://www.atmmessinaspa.it/smartpoles2.php?palina=826&rnd=84"
  },
  {
    "name": "GANZIRRI",
    "lat": 38.26313,
    "lon": 15.62640, 
    "url": "https://www.atmmessinaspa.it/smartpoles2.php?palina=1894&rnd=84"
  },
  {
    "name": "LAGO GRANDE 106",
    "lat": 38.26094,
    "lon": 15.62501, 
    "url": "https://www.atmmessinaspa.it/smartpoles2.php?palina=827&rnd=84"
  },
  {
    "name": "GANZIRRI SP46 N 127 DIR CENTRO",
    "lat": 38.26074,
    "lon": 15.62930, 
    "url": "https://www.atmmessinaspa.it/smartpoles2.php?palina=1828&rnd=84"
  },
  {
    "name": "GANZIRRI SP46 N 127 DIR LAGO",
    "lat": 38.26074,
    "lon": 15.62977, 
    "url": "https://www.atmmessinaspa.it/smartpoles2.php?palina=828&rnd=84"
  },
  {
    "name": "EX MOTEL FARO DIR LAGO",
    "lat": 38.26134,
    "lon": 15.63302, 
    "url": "https://www.atmmessinaspa.it/smartpoles2.php?palina=829&rnd=84"
  },
  {
    "name": "EX MOTEL FARO DIR CENTRO",
    "lat": 38.26135,
    "lon": 15.63270, 
    "url": "https://www.atmmessinaspa.it/smartpoles2.php?palina=1829&rnd=84"
  },
  {
    "name": "FARO V. CIRCUITO 170 DIR LAGO",
    "lat": 38.26271,
    "lon": 15.63550, 
    "url": "https://www.atmmessinaspa.it/smartpoles2.php?palina=830&rnd=84"
  },
  {
    "name": "FARO V. CIRCUITO 170 DIR CENTRO",
    "lat": 38.26280,
    "lon": 15.63532, 
    "url": "https://www.atmmessinaspa.it/smartpoles2.php?palina=1830&rnd=84"
  },
  {
    "name": "FARO V. CIRCUITO 177 DIR LAGO",
    "lat": 38.26422,
    "lon": 15.63750, 
    "url": "https://www.atmmessinaspa.it/smartpoles2.php?palina=831&rnd=84"
  },
  {
    "name": "FARO V. CIRCUITO 177 DIR CENTRO",
    "lat": 38.26431,
    "lon": 15.63740, 
    "url": "https://www.atmmessinaspa.it/smartpoles2.php?palina=1831&rnd=84"
  },
  {
    "name": "FARO V. NUOVA 41",
    "lat": 38.26501,
    "lon": 15.64141, 
    "url": "https://www.atmmessinaspa.it/smartpoles2.php?palina=833&rnd=84"
  },
  {
    "name": "TORRE FARO - PAPARDO",
    "lat": 38.26482,
    "lon": 15.64289, 
    "url": "https://www.atmmessinaspa.it/smartpoles2.php?palina=834&rnd=84"
  },
  {
    "name": "TORRE FARO V. P.ZZO 89",
    "lat": 38.26601,
    "lon": 15.64620, 
    "url": "https://www.atmmessinaspa.it/smartpoles2.php?palina=835&rnd=84"
  },
  {
    "name": "TORRE FARO V. AREA TORR. 28",
    "lat": 38.26681,
    "lon": 15.64900, 
    "url": "https://www.atmmessinaspa.it/smartpoles2.php?palina=836&rnd=84"
  },
  {
    "name": "TORRE FARO V. CIRCONVALLAZIONE TIRRENA 63",
    "lat": 38.26893,
    "lon": 15.65079, 
    "url": "https://www.atmmessinaspa.it/smartpoles2.php?palina=837&rnd=84"
  },
  {
    "name": "TORRE FARO C.DA TORR. BIANCA 33",
    "lat": 38.27113,
    "lon": 15.64691, 
    "url": "https://www.atmmessinaspa.it/smartpoles2.php?palina=838&rnd=84"
  },
  {
    "name": "TORRE FARO C.DA TORR. BIANCA 17A",
    "lat": 38.27163,
    "lon": 15.64408, 
    "url": "https://www.atmmessinaspa.it/smartpoles2.php?palina=839&rnd=84"
  },
  {
    "name": "TORRE FARO C.DA TORR. BIANCA 2",
    "lat": 38.27102,
    "lon": 15.64150, 
    "url": "https://www.atmmessinaspa.it/smartpoles2.php?palina=840&rnd=84"
  },
  {
    "name": "TORRE FARO POSTE E TELECOMUNICAZIONI",
    "lat": 38.27092,
    "lon": 15.63910, 
    "url": "https://www.atmmessinaspa.it/smartpoles2.php?palina=841&rnd=84"
  },
  {
    "name": "ISTITUTO MARINO",
    "lat": 38.27096,
    "lon": 15.63390, 
    "url": "https://www.atmmessinaspa.it/smartpoles2.php?palina=842&rnd=84"
  },
  {
    "name": "MORTELLE STR.STATALE 113 KM. 11-200",
    "lat": 38.26927,
    "lon": 15.63343, 
    "url": "https://www.atmmessinaspa.it/smartpoles2.php?palina=770&rnd=84"
  },
  {
    "name": "MORTELLE STR.STATALE 113 V.LLA REGINA DIR LAGO",
    "lat": 38.27071,
    "lon": 15.63296, 
    "url": "https://www.atmmessinaspa.it/smartpoles2.php?palina=771&rnd=84"
  },
  {
    "name": "MORTELLE STR.STATALE 113 V.LLA REGINA DIR CENTRO",
    "lat": 38.27056,
    "lon": 15.63304, 
    "url": "https://www.atmmessinaspa.it/smartpoles2.php?palina=1771&rnd=84"
  },
  {
    "name": "MORTELLE STR.STATALE 113 LIDO MORTELLE DIR LAGO",
    "lat": 38.27140,
    "lon": 15.62926, 
    "url": "https://www.atmmessinaspa.it/smartpoles2.php?palina=772&rnd=84"
  },
  {
    "name": "MORTELLE STR.STATALE 113 LIDO MORTELLE DIR CENTRO",
    "lat": 38.27126,
    "lon": 15.62920, 
    "url": "https://www.atmmessinaspa.it/smartpoles2.php?palina=1772&rnd=84"
  },
  {
    "name": "MORTELLE STR.STATALE 113 N33 DIR LAGO",
    "lat": 38.27143,
    "lon": 15.62730, 
    "url": "https://www.atmmessinaspa.it/smartpoles2.php?palina=773&rnd=84"
  },
  {
    "name": "MORTELLE STR.STATALE 113 N33 DIR CENTRO",
    "lat": 38.27137,
    "lon": 15.62720, 
    "url": "https://www.atmmessinaspa.it/smartpoles2.php?palina=1773&rnd=84"
  },
  {
    "name": "MORTELLE STR.STATALE 113 LIDO DELFINO DIR LAGO",
    "lat": 38.27127,
    "lon": 15.62380, 
    "url": "https://www.atmmessinaspa.it/smartpoles2.php?palina=774&rnd=84"
  },
  {
    "name": "MORTELLE STR.STATALE 113 LIDO DELFINO DIR CENTRO",
    "lat": 38.27119,
    "lon": 15.62370, 
    "url": "https://www.atmmessinaspa.it/smartpoles2.php?palina=1774&rnd=84"
  },
  {
    "name": "MORTELLE STR.STATALE 113 N75A DIR LAGO",
    "lat": 38.27112,
    "lon": 15.62118, 
    "url": "https://www.atmmessinaspa.it/smartpoles2.php?palina=775&rnd=84"
  },
  {
    "name": "MORTELLE STR.STATALE 113 N75A DIR CENTRO",
    "lat": 38.27103,
    "lon": 15.62121, 
    "url": "https://www.atmmessinaspa.it/smartpoles2.php?palina=1775&rnd=84"
  },
  {
    "name": "MORTELLE STR.STATALE 113 N42",
    "lat": 38.27101,
    "lon": 15.61860, 
    "url": "https://www.atmmessinaspa.it/smartpoles2.php?palina=776&rnd=84"
  },
  {
    "name": "MORTELLE STR.STATALE 113 SPIAGGIA D'ORO DIR LAGO",
    "lat": 38.27087,
    "lon": 15.61458, 
    "url": "https://www.atmmessinaspa.it/smartpoles2.php?palina=777&rnd=84"
  },
  {
    "name": "MORTELLE STR.STATALE 113 SPIAGGIA D'ORO DIR CENTRO",
    "lat": 38.27081,
    "lon": 15.61450, 
    "url": "https://www.atmmessinaspa.it/smartpoles2.php?palina=1777&rnd=84"
  },
  {
    "name": "TIMPAZZI STR.STATALE 113 KM 13-400 DIR LAGO",
    "lat": 38.27081,
    "lon": 15.61120, 
    "url": "https://www.atmmessinaspa.it/smartpoles2.php?palina=778&rnd=84"
  },
  {
    "name": "TIMPAZZI STR.STATALE 113 KM 13-400 DIR CENTRO",
    "lat": 38.27082,
    "lon": 15.61111, 
    "url": "https://www.atmmessinaspa.it/smartpoles2.php?palina=17778&rnd=84"
  },
  {
    "name": "TIMPAZZI STR.STATALE 113 KM 13-900 DIR LAGO",
    "lat": 38.27163,
    "lon": 15.60501, 
    "url": "https://www.atmmessinaspa.it/smartpoles2.php?palina=779&rnd=84"
  },
  {
    "name": "TIMPAZZI STR.STATALE 113 KM 13-900 DIR CENTRO",
    "lat": 38.27161,
    "lon": 15.60492, 
    "url": "https://www.atmmessinaspa.it/smartpoles2.php?palina=1779&rnd=84"
  },
  {
    "name": "TIMPAZZI STR.STATALE 113 KM 14-000 DIR LAGO",
    "lat": 38.27220,
    "lon": 15.60160, 
    "url": "https://www.atmmessinaspa.it/smartpoles2.php?palina=780&rnd=84"
  },
  {
    "name": "TIMPAZZI STR.STATALE 113 KM 14-000 DIR CENTRO",
    "lat": 38.27216,
    "lon": 15.60149, 
    "url": "https://www.atmmessinaspa.it/smartpoles2.php?palina=1780&rnd=84"
  },
  {
    "name": "TIMPAZZI STR.STATALE 113 KM 14-600 DIR LAGO",
    "lat": 38.27344,
    "lon": 15.59678, 
    "url": "https://www.atmmessinaspa.it/smartpoles2.php?palina=781&rnd=84"
  },
  {
    "name": "TIMPAZZI STR.STATALE 113 KM 14-600 DIR CENTRO",
    "lat": 38.27338,
    "lon": 15.59666, 
    "url": "https://www.atmmessinaspa.it/smartpoles2.php?palina=1781&rnd=84"
  },
  {
    "name": "TIMPAZZI STR.STATALE 113 KM 14-900 DIR LAGO",
    "lat": 38.27489,
    "lon": 15.59278, 
    "url": "https://www.atmmessinaspa.it/smartpoles2.php?palina=782&rnd=84"
  },
  {
    "name": "TIMPAZZI STR.STATALE 113 KM 14-900 DIR CENTRO",
    "lat": 38.27487,
    "lon": 15.59250, 
    "url": "https://www.atmmessinaspa.it/smartpoles2.php?palina=1782&rnd=84"
  },
  {
    "name": "C.SA BIANCA STR.STATALE 113 KM 15-150 DIR LAGO",
    "lat": 38.27712,
    "lon": 15.58860, 
    "url": "https://www.atmmessinaspa.it/smartpoles2.php?palina=783&rnd=84"
  },
  {
    "name": "C.SA BIANCA STR.STATALE 113 KM 15-150 DIR CENTRO",
    "lat": 38.27709,
    "lon": 15.58850, 
    "url": "https://www.atmmessinaspa.it/smartpoles2.php?palina=1783&rnd=84"
  },
  {
    "name": "C.SA BIANCA STR.STATALE 113 KM 15-500 DIR LAGO",
    "lat": 38.27811,
    "lon": 15.58530, 
    "url": "https://www.atmmessinaspa.it/smartpoles2.php?palina=784&rnd=84"
  },
  {
    "name": "C.SA BIANCA STR.STATALE 113 KM 15-500 DIR CENTRO",
    "lat": 38.27801,
    "lon": 15.58520, 
    "url": "https://www.atmmessinaspa.it/smartpoles2.php?palina=1784&rnd=84"
  },
  {
    "name": "C.SA BIANCA STR.STATALE 113 KM 15-950 DIR LAGO",
    "lat": 38.28033,
    "lon": 15.58052, 
    "url": "https://www.atmmessinaspa.it/smartpoles2.php?palina=785&rnd=84"
  },
  {
    "name": "C.SA BIANCA STR.STATALE 113 KM 15-950 DIR CENTRO",
    "lat": 38.28032,
    "lon": 15.58040, 
    "url": "https://www.atmmessinaspa.it/smartpoles2.php?palina=1785&rnd=84"
  },
  {
    "name": "TONO STR. STATALE 113 KM 16-600",
    "lat": 38.28234,
    "lon": 15.57648, 
    "url": "https://www.atmmessinaspa.it/smartpoles2.php?palina=786&rnd=84"
  },
  {
    "name": "TONO STR. STATALE 113 KM 16-900 DIR LAGO",
    "lat": 38.28424,
    "lon": 15.57422, 
    "url": "https://www.atmmessinaspa.it/smartpoles2.php?palina=787&rnd=84"
  },
  {
    "name": "TONO STR. STATALE 113 KM 16-900 DIR CENTRO",
    "lat": 38.28423,
    "lon": 15.57409, 
    "url": "https://www.atmmessinaspa.it/smartpoles2.php?palina=1787&rnd=84"
  },
  {
    "name": "TONO STR. STATALE 113 B.VIO FARO SUP DIR LAGO",
    "lat": 38.28399,
    "lon": 15.57084, 
    "url": "https://www.atmmessinaspa.it/smartpoles2.php?palina=788&rnd=84"
  },
  {
    "name": "TONO STR. STATALE 113 B.VIO FARO SUP DIR CENTRO",
    "lat": 38.28392,
    "lon": 15.57070, 
    "url": "https://www.atmmessinaspa.it/smartpoles2.php?palina=1788&rnd=84"
  },
  {
    "name": "TONO STR. STATALE 113 KM 17-200 DIR LAGO",
    "lat": 38.28594,
    "lon": 15.56909, 
    "url": "https://www.atmmessinaspa.it/smartpoles2.php?palina=789&rnd=84"
  },
  {
    "name": "TONO STR. STATALE 113 KM 17-200 DIR CENTRO",
    "lat": 38.28591,
    "lon": 15.56900, 
    "url": "https://www.atmmessinaspa.it/smartpoles2.php?palina=1789&rnd=84"
  },
  {
    "name": "TONO STR. STATALE 113 TORR. MEZZANA DIR LAGO",
    "lat": 38.29043,
    "lon": 15.56321, 
    "url": "https://www.atmmessinaspa.it/smartpoles2.php?palina=790&rnd=84"
  },
  {
    "name": "TONO STR. STATALE 113 TORR. MEZZANA DIR CENTRO",
    "lat": 38.29044,
    "lon": 15.56311, 
    "url": "https://www.atmmessinaspa.it/smartpoles2.php?palina=1790&rnd=84"
  },
  {
    "name": "P.NO ROCCA SS113 B.VIO ACQUALADRONE DIR LAGO",
    "lat": 38.29155,
    "lon": 15.55524, 
    "url": "https://www.atmmessinaspa.it/smartpoles2.php?palina=791&rnd=84"
  },
  {
    "name": "P.NO ROCCA SS113 B.VIO ACQUALADRONE DIR CENTRO",
    "lat": 38.29163,
    "lon": 15.55489, 
    "url": "https://www.atmmessinaspa.it/smartpoles2.php?palina=1791&rnd=84"
  },
  {
    "name": "P.NO ROCCA SS113 KM 20-100 DIR LAGO",
    "lat": 38.29393,
    "lon": 15.55432, 
    "url": "https://www.atmmessinaspa.it/smartpoles2.php?palina=792&rnd=84"
  },
  {
    "name": "P.NO ROCCA SS113 KM 20-100 DIR CENTRO",
    "lat": 38.29380,
    "lon": 15.55430, 
    "url": "https://www.atmmessinaspa.it/smartpoles2.php?palina=1792&rnd=84"
  },
  {
    "name": "P.NO ROCCA SS113 KM 20-300 DIR LAGO",
    "lat": 38.29434,
    "lon": 15.55200, 
    "url": "https://www.atmmessinaspa.it/smartpoles2.php?palina=793&rnd=84"
  },
  {
    "name": "P.NO ROCCA SS113 KM 20-300 DIR CENTRO",
    "lat": 38.29424,
    "lon": 15.55190, 
    "url": "https://www.atmmessinaspa.it/smartpoles2.php?palina=1793&rnd=84"
  },
  {
    "name": "P.NO ROCCA SS113 KM 20-500 DIR LAGO",
    "lat": 38.29494,
    "lon": 15.54854, 
    "url": "https://www.atmmessinaspa.it/smartpoles2.php?palina=794&rnd=84"
  },
  {
    "name": "P.NO ROCCA SS113 KM 20-500 DIR CENTRO",
    "lat": 38.29483,
    "lon": 15.54840, 
    "url": "https://www.atmmessinaspa.it/smartpoles2.php?palina=1794&rnd=84"
  },
  {
    "name": "SPARTA' STR.STATALE 113 KM 20-800 DIR LAGO",
    "lat": 38.29338,
    "lon": 15.54625, 
    "url": "https://www.atmmessinaspa.it/smartpoles2.php?palina=795&rnd=84"
  },
  {
    "name": "SPARTA' STR.STATALE 113 KM 20-800 DIR CENTRO",
    "lat": 38.29330,
    "lon": 15.54822, 
    "url": "https://www.atmmessinaspa.it/smartpoles2.php?palina=1795&rnd=84"
  },
  {
    "name": "SPARTA' KM 21-300 DIR LAGO",
    "lat": 38.29442,
    "lon": 15.54190, 
    "url": "https://www.atmmessinaspa.it/smartpoles2.php?palina=796&rnd=84"
  },
  {
    "name": "SPARTA' KM 21-300 DIR CENTRO",
    "lat": 38.29435,
    "lon": 15.54189, 
    "url": "https://www.atmmessinaspa.it/smartpoles2.php?palina=1796&rnd=84"
  },
  {
    "name": "SPARTA' KM 21-800",
    "lat": 38.29442,
    "lon": 15.54190, 
    "url": "https://www.atmmessinaspa.it/smartpoles2.php?palina=797&rnd=84"
  },
  {
    "name": "P.NO TORRE DISC. MARINA DI MEZZACAPA DIR LAGO",
    "lat": 38.29321,
    "lon": 15.53298, 
    "url": "https://www.atmmessinaspa.it/smartpoles2.php?palina=798&rnd=84"
  },
  {
    "name": "P.NO TORRE SS113 KM 22-500 DIR LAGO",
    "lat": 38.29268,
    "lon": 15.52879, 
    "url": "https://www.atmmessinaspa.it/smartpoles2.php?palina=799&rnd=84"
  },
  {
    "name": "P.NO TORRE SS113 KM 22-500 DIR CENTRO",
    "lat": 38.29255,
    "lon": 15.52870, 
    "url": "https://www.atmmessinaspa.it/smartpoles2.php?palina=1799&rnd=84"
  },
  {
    "name": "V.LE ANNUNZIATA S.ELENA DIR SALITA",
    "lat": 38.21868,
    "lon": 15.56290, 
    "url": "https://www.atmmessinaspa.it/smartpoles2.php?palina=559&rnd=84"
  },
  {
    "name": "V.LE ANNUNZIATA S.ELENA DIR DISCESA",
    "lat": 38.21850,
    "lon": 15.56293, 
    "url": "https://www.atmmessinaspa.it/smartpoles2.php?palina=1559&rnd=84"
  },
  {
    "name": "ST. PANORAMICA DELLO STRETTO V.LE DEI TIGLI DIR LAGO",
    "lat": 38.21963,
    "lon": 15.56382, 
    "url": "https://www.atmmessinaspa.it/smartpoles2.php?palina=847&rnd=84"
  },
  {
    "name": "ST. PANORAMICA DELLO STRETTO V.LE DEI TIGLI DIR CENTRO",
    "lat": 38.21967,
    "lon": 15.56371, 
    "url": "https://www.atmmessinaspa.it/smartpoles2.php?palina=1847&rnd=84"
  },
  {
    "name": "ST. PANORAMICA DELLO STRETTO EDEN PARK DIR CENTRO",
    "lat": 38.22312,
    "lon": 15.56460, 
    "url": "https://www.atmmessinaspa.it/smartpoles2.php?palina=1848&rnd=84"
  },
  {
    "name": "ST. PANORAMICA DELLO STRETTO EDEN PARK DIR LAGO",
    "lat": 38.22310,
    "lon": 15.56450, 
    "url": "https://www.atmmessinaspa.it/smartpoles2.php?palina=848&rnd=84"
  },
  {
    "name": "ST. PANORAMICA DELLO STRETTO 574 DIR LAGO",
    "lat": 38.22532,
    "lon": 15.56470, 
    "url": "https://www.atmmessinaspa.it/smartpoles2.php?palina=849&rnd=84"
  },
  {
    "name": "ST. PANORAMICA DELLO STRETTO 574 DIR CENTRO",
    "lat": 38.22530,
    "lon": 15.56460, 
    "url": "https://www.atmmessinaspa.it/smartpoles2.php?palina=1849&rnd=84"
  },
  {
    "name": "ST. PANORAMICA DELLO STRETTO PARNASO DIR LAGO",
    "lat": 38.22637,
    "lon": 15.56571, 
    "url": "https://www.atmmessinaspa.it/smartpoles2.php?palina=850&rnd=84"
  },
  {
    "name": "ST. PANORAMICA DELLO STRETTO PARNASO DIR CENTRO",
    "lat": 38.22640,
    "lon": 15.56560, 
    "url": "https://www.atmmessinaspa.it/smartpoles2.php?palina=1850&rnd=84"
  },
  {
    "name": "ST. PANORAMICA DELLO STRETTO LINEA VERDE 1 DIR LAGO",
    "lat": 38.22726,
    "lon": 15.56656, 
    "url": "https://www.atmmessinaspa.it/smartpoles2.php?palina=851&rnd=84"
  },
  {
    "name": "ST. PANORAMICA DELLO STRETTO LINEA VERDE DIR CENTRO",
    "lat": 38.22751,
    "lon": 15.56650, 
    "url": "https://www.atmmessinaspa.it/smartpoles2.php?palina=1851&rnd=84"
  },
  {
    "name": "ST. PANORAMICA DELLO STRETTO LINEA VERDE 2 DIR LAGO",
    "lat": 38.22932,
    "lon": 15.56824, 
    "url": "https://www.atmmessinaspa.it/smartpoles2.php?palina=852&rnd=84"
  },
  {
    "name": "ST. PANORAMICA DELLO STRETTO LINEA VERDE 2 DIR CENTRO",
    "lat": 38.22931,
    "lon": 15.56817, 
    "url": "https://www.atmmessinaspa.it/smartpoles2.php?palina=1852&rnd=84"
  },
  {
    "name": "ST. PANORAMICA DELLO STRETTO RIALTO AZZURRO DIR LAGO",
    "lat": 38.23102,
    "lon": 15.56830, 
    "url": "https://www.atmmessinaspa.it/smartpoles2.php?palina=853&rnd=84"
  },
  {
    "name": "ST. PANORAMICA DELLO STRETTO RIALTO AZZURRO DIR CENTRO",
    "lat": 38.23097,
    "lon": 15.56825, 
    "url": "https://www.atmmessinaspa.it/smartpoles2.php?palina=1853&rnd=84"
  },
  {
    "name": "ST. PANORAMICA DELLO STRETTO KM 2-200 DIR LAGO",
    "lat": 38.23289,
    "lon": 15.56996, 
    "url": "https://www.atmmessinaspa.it/smartpoles2.php?palina=854&rnd=84"
  },
  {
    "name": "ST. PANORAMICA DELLO STRETTO KM 2-200 DIR CENTRO",
    "lat": 38.23292,
    "lon": 15.56969, 
    "url": "https://www.atmmessinaspa.it/smartpoles2.php?palina=1854&rnd=84"
  },
  {
    "name": "ST. PANORAMICA DELLO STRETTO KM 2-500 DIR LAGO",
    "lat": 38.23651,
    "lon": 15.57210, 
    "url": "https://www.atmmessinaspa.it/smartpoles2.php?palina=855&rnd=84"
  },
  {
    "name": "ST. PANORAMICA DELLO STRETTO KM 2-500 DIR CENTRO",
    "lat": 38.23677,
    "lon": 15.57172, 
    "url": "https://www.atmmessinaspa.it/smartpoles2.php?palina=1855&rnd=84"
  },
  {
    "name": "ST. PANORAMICA DELLO STRETTO CIMITERO DIR LAGO",
    "lat": 38.23909,
    "lon": 15.57562, 
    "url": "https://www.atmmessinaspa.it/smartpoles2.php?palina=856&rnd=84"
  },
  {
    "name": "ST. PANORAMICA DELLO STRETTO CIMITERO DIR CENTRO",
    "lat": 38.23929,
    "lon": 15.57516, 
    "url": "https://www.atmmessinaspa.it/smartpoles2.php?palina=1856&rnd=84"
  },
  {
    "name": "ST. PANORAMICA DELLO STRETTO PARCHEGGIO DIR CENTRO",
    "lat": 38.24170,
    "lon": 15.57782, 
    "url": "https://www.atmmessinaspa.it/smartpoles2.php?palina=1857&rnd=84"
  },
  {
    "name": "ST. PANORAMICA DELLO STRETTO PARCHEGGIO DIR LAGO",
    "lat": 38.24169,
    "lon": 15.57851, 
    "url": "https://www.atmmessinaspa.it/smartpoles2.php?palina=857&rnd=84"
  },
  {
    "name": "ST. PANORAMICA DELLO STRETTO KM 4-400 DIR LAGO",
    "lat": 38.24834,
    "lon": 15.58299, 
    "url": "https://www.atmmessinaspa.it/smartpoles2.php?palina=858&rnd=84"
  },
  {
    "name": "ST. PANORAMICA DELLO STRETTO KM 4-400 DIR CENTRO",
    "lat": 38.24845,
    "lon": 15.58287, 
    "url": "https://www.atmmessinaspa.it/smartpoles2.php?palina=1858&rnd=84"
  },
  {
    "name": "ST. PANORAMICA DELLO STRETTO DIR LAGO",
    "lat": 38.25176,
    "lon": 15.59043, 
    "url": "https://www.atmmessinaspa.it/smartpoles2.php?palina=2858&rnd=84"
  },
  {
    "name": "ST. PANORAMICA DELLO STRETTO DIR CENTRO",
    "lat": 38.25202,
    "lon": 15.59051, 
    "url": "https://www.atmmessinaspa.it/smartpoles2.php?palina=2857&rnd=84"
  },
  {
    "name": "ST. PANORAMICA DELLO STRETTO DIR LAGO",
    "lat": 38.25262,
    "lon": 15.59335, 
    "url": "https://www.atmmessinaspa.it/smartpoles2.php?palina=2856&rnd=84"
  },
  {
    "name": "ST. PANORAMICA DELLO STRETTO VILLA LABRUTO DIR LAGO",
    "lat": 38.25575,
    "lon": 15.59742, 
    "url": "https://www.atmmessinaspa.it/smartpoles2.php?palina=2855&rnd=84"
  },
  {
    "name": "ST. PANORAMICA DELLO STRETTO VILLA LABRUTO DIR CENTRO",
    "lat": 38.25582,
    "lon": 15.59722, 
    "url": "https://www.atmmessinaspa.it/smartpoles2.php?palina=2854&rnd=84"
  },
  {
    "name": "ST. PANORAMICA DELLO STRETTO KM 6-300 DIR LAGO",
    "lat": 38.25805,
    "lon": 15.59863, 
    "url": "https://www.atmmessinaspa.it/smartpoles2.php?palina=859&rnd=84"
  },
  {
    "name": "ST. PANORAMICA DELLO STRETTO KM 6-300 DIR CENTRO",
    "lat": 38.25808,
    "lon": 15.59843, 
    "url": "https://www.atmmessinaspa.it/smartpoles2.php?palina=1859&rnd=84"
  },
  {
    "name": "V.LE STAGNO D'ALCONTRES-P.TE SP DIR CENTRO",
    "lat": 38.26025,
    "lon": 15.60161, 
    "url": "https://www.atmmessinaspa.it/smartpoles2.php?palina=866&rnd=84"
  },
  {
    "name": "ST. PANORAMICA DELLO STRETTO DIR LAGO",
    "lat": 38.26115,
    "lon": 15.60304, 
    "url": "https://www.atmmessinaspa.it/smartpoles2.php?palina=2853&rnd=84"
  },
  {
    "name": "ST. PANORAMICA DELLO STRETTO VILLA LUNA DIR LAGO",
    "lat": 38.26365,
    "lon": 15.60529, 
    "url": "https://www.atmmessinaspa.it/smartpoles2.php?palina=2852&rnd=84"
  },
  {
    "name": "ST. PANORAMICA DELLO STRETTO VILLA LUNA DIR CENTRO",
    "lat": 38.26378,
    "lon": 15.60499, 
    "url": "https://www.atmmessinaspa.it/smartpoles2.php?palina=2851&rnd=84"
  },
  {
    "name": "ST. PANORAMICA DELLO STRETTO DIR LAGO",
    "lat": 38.26496,
    "lon": 15.60947, 
    "url": "https://www.atmmessinaspa.it/smartpoles2.php?palina=2849&rnd=84"
  },
  {
    "name": "ST. PANORAMICA DELLO STRETTO KM 8-100 DIR LAGO",
    "lat": 38.26656,
    "lon": 15.61591, 
    "url": "https://www.atmmessinaspa.it/smartpoles2.php?palina=860&rnd=84"
  },
  {
    "name": "ST. PANORAMICA DELLO STRETTO KM 8-100 DIR CENTRO",
    "lat": 38.26663,
    "lon": 15.61569, 
    "url": "https://www.atmmessinaspa.it/smartpoles2.php?palina=1860&rnd=84"
  },
  {
    "name": "ST. PANORAMICA DELLO STRETTO KM 8-700 DIR LAGO",
    "lat": 38.26648,
    "lon": 15.62281, 
    "url": "https://www.atmmessinaspa.it/smartpoles2.php?palina=861&rnd=84"
  },
  {
    "name": "ST. PANORAMICA DELLO STRETTO KM 8-700 DIR CENTRO",
    "lat": 38.26660,
    "lon": 15.62259, 
    "url": "https://www.atmmessinaspa.it/smartpoles2.php?palina=1861&rnd=84"
  },
  {
    "name": "FRANTINARO",
    "lat": 38.26895,
    "lon": 15.62528, 
    "url": "https://www.atmmessinaspa.it/smartpoles2.php?palina=862&rnd=84"
  }
]



