[
  {
    "name": "CAPOLINEA TORRE FARO",
    "lat": 38.265545,
    "lon": 15.638842,
    "url": "https://www.atmmessinaspa.it/smartpoles2.php?palina=832&rnd=24"
  },
  {
    "name": "CARONTE DIR CENTRO",
    "lat": 38.210917,
    "lon": 15.561099,
    "url": "https://www.atmmessinaspa.it/smartpoles2.php?palina=1555&rnd=87"
  },
  {
    "name": "CARONTE DIR LAGO",
    "lat": 38.21091,
    "lon": 15.561294,
    "url": "https://www.atmmessinaspa.it/smartpoles2.php?palina=555&rnd=85"
  },
  {
    "name": "V. CONSOLARE POMPEA 1497 DIR CENTRO",
    "lat": 38.251942,
    "lon": 15.594482,
    "url": "https://www.atmmessinaspa.it/smartpoles2.php?palina=1756&rnd=19"
  },
  {
    "name": "V. CONSOLARE POMPEA 1497 DIR LAGO",
    "lat": 38.251945,
    "lon": 15.594574,
    "url": "https://www.atmmessinaspa.it/smartpoles2.php?palina=756&rnd=27"
  },
  {
    "name": "V. CESARE BATTISTI 215",
    "lat": 38.187321,
    "lon": 15.552785,
    "url": "https://www.atmmessinaspa.it/smartpoles2.php?palina=245&rnd=87"
  },
  {
    "name": "DECO V.CONSOLARE POMPEA DIR CENTRO",
    "lat": 38.25262,
    "lon": 15.59651,
    "url": "https://www.atmmessinaspa.it/smartpoles2.php?palina=1757&rnd=67"
  },
  {
    "name": "DECO V. CONSOLARE POMPEA DIR LAGO",
    "lat": 38.252538,
    "lon": 15.596598,
    "url": "https://www.atmmessinaspa.it/smartpoles2.php?palina=757&rnd=67"
  },
  {
    "name": "DESPAR ARCERI LATO DISCESA",
    "lat": 38.259321,
    "lon": 15.60237,
    "url": "https://www.atmmessinaspa.it/smartpoles2.php?palina=1866&rnd=67"
  },
  {
    "name": "DISCESA UNI PAPARDO DIR CENTRO",
    "lat": 38.255635,
    "lon": 15.602252,
    "url": "https://www.atmmessinaspa.it/smartpoles2.php?palina=1759&rnd=71"
  },
  {
    "name": "FARMACIA GRASSO DIR LAGO",
    "lat": 38.190264,
    "lon": 15.552101,
    "url": "https://www.atmmessinaspa.it/smartpoles2.php?palina=510&rnd=71"
  },
  {
    "name": "FORESTALE",
    "lat": 38.187466,
    "lon": 15.555154,
    "url": "https://www.atmmessinaspa.it/smartpoles2.php?palina=1246&rnd=91"
  },
  {
    "name": "MC TREMESTIERI DIR CENTRO",
    "lat": 38.153206,
    "lon": 15.530892,
    "url": "https://www.atmmessinaspa.it/smartpoles2.php?palina=1309&rnd=91"
  },
  {
    "name": "POLICLINICO DIR CENTRO",
    "lat": 38.162104,
    "lon": 15.538406,
    "url": "https://www.atmmessinaspa.it/smartpoles2.php?palina=116&rnd=98"
  },
  {
    "name": "SALITA ANNUNZIATA",
    "lat": 38.218223,
    "lon": 15.564862,
    "url": "https://www.atmmessinaspa.it/smartpoles2.php?palina=558&rnd=98"
  },
  {
    "name": "SEMAFORO PAPARDO DIR CENTRO",
    "lat": 38.256718,
    "lon": 15.604886,
    "url": "https://www.atmmessinaspa.it/smartpoles2.php?palina=1760&rnd=67"
  },
  {
    "name": "STAZIONE CEN DIR FARO",
    "lat": 38.185786,
    "lon": 15.559891,
    "url": "https://www.atmmessinaspa.it/smartpoles2.php?palina=1125&rnd=48"
  },
  {
    "name": "TABBACCHI SANT'AGATA DIR CENTRO",
    "lat": 38.253961,
    "lon": 15.599691,
    "url": "https://www.atmmessinaspa.it/smartpoles2.php?palina=1758&rnd=84"
  },
  {
    "name": "TABBACCHI SANT'AGATA DIR LAGO",
    "lat": 38.254035,
    "lon": 15.599924,
    "url": "https://www.atmmessinaspa.it/smartpoles2.php?palina=758&rnd=84"
  },
  {
    "name": "TRIBUNALE",
    "lat": 38.188759,
    "lon": 15.552845,
    "url": "https://www.atmmessinaspa.it/smartpoles2.php?palina=129&rnd=12"
  },
  {
    "name": "UNI PAPARDO",
    "lat": 38.261337,
    "lon": 15.59965,
    "url": "https://www.atmmessinaspa.it/smartpoles2.php?palina=863&rnd=55"
  },
  {
    "name": "V. CESERE BATTISTI UNI",
    "lat": 38.188793,
    "lon": 15.553908,
    "url": "https://www.atmmessinaspa.it/smartpoles2.php?palina=103&rnd=87"
  },
  {
    "name": "MUSEO DIR LAGO",
    "lat": 38.2171857,
    "lon": 15.5655006,
    "url": "https://www.atmmessinaspa.it/smartpoles2.php?palina=557&rnd=84"
  },
  {
    "name": "MUSEO DIR CENTRO",
    "lat": 38.2165316,
    "lon": 15.5644549,
    "url": "https://www.atmmessinaspa.it/smartpoles2.php?palina=1557&rnd=84"
  },
  {
    "name": "V. CESARE BATTISTI - P. LEPANTO",
    "lat": 38.1915815,
    "lon": 15.5561411,
    "url": "https://www.atmmessinaspa.it/smartpoles2.php?palina=148&rnd=84"
  },
  {
    "name": "TROCADERO DIR CENTRO",
    "lat": 38.2381817,
    "lon": 15.5778133,
    "url": "https://www.atmmessinaspa.it/smartpoles2.php?palina=1699&rnd=84"
  },
  {
    "name": "TROCADERO DIR LAGO",
    "lat": 38.2380945,
    "lon": 15.5777359,
    "url": "https://www.atmmessinaspa.it/smartpoles2.php?palina=699&rnd=84"
  },
  {
    "name": "V. CONSOLARE POMPEA 17 DIR LAGO",
    "lat": 38.2194025,
    "lon": 15.5658121,
    "url": "https://www.atmmessinaspa.it/smartpoles2.php?palina=691&rnd=84"
  },
  {
    "name": "V. CONSOLARE POMPEA 17 DIR CENTRO",
    "lat": 38.2192946,
    "lon": 15.5657917,
    "url": "https://www.atmmessinaspa.it/smartpoles2.php?palina=1691&rnd=84"
  },
  {
    "name": "V. FIUMARA GUARDIA - AUTODROMO DIR CENTRO",
    "lat": 38.25046839269177,
    "lon": 15.590353687145155,
    "url": "https://www.atmmessinaspa.it/smartpoles2.php?palina=1755&rnd=84"
  },
  {
    "name": "V. FIUMARA GUARDIA - AUTODROMO DIR LAGO",
    "lat": 38.250551629664365,
    "lon": 15.591066726324893,
    "url": "https://www.atmmessinaspa.it/smartpoles2.php?palina=755&rnd=84"
  },
  {
    "name": "V.LE ANNUNZIATA - SCUOLA VITTORINI DIR CENTRO",
    "lat": 38.2238092,
    "lon": 15.5534401,
    "url": "https://www.atmmessinaspa.it/smartpoles2.php?palina=571&rnd=84"
  },
  {
    "name": "V.LE ANNUNZIATA - SCUOLA VITTORINI DIR UNI",
    "lat": 38.223801,
    "lon": 15.553531,
    "url": "https://www.atmmessinaspa.it/smartpoles2.php?palina=1571&rnd=84"
  },
  {
    "name": "V. GARIBALDI - TORRENTE TRAPANI DIR CENTRO",
    "lat": 38.2056637,
    "lon": 15.5580666,
    "url": "https://www.atmmessinaspa.it/smartpoles2.php?palina=550&rnd=84"
  },
  {
    "name": "V. CONSOLARE POMPEA 1955 DIR CENTRO",
    "lat": 38.26292265500724,
    "lon": 15.621517887013757,
    "url": "https://www.atmmessinaspa.it/smartpoles2.php?palina=1766&rnd=84"
  }, 
  {
    "name": "V. CONSOLARE POMPEA 1955 DIR LAGO",
    "lat": 38.26281578683574,
    "lon": 15.621502948677731,
    "url": "https://www.atmmessinaspa.it/smartpoles2.php?palina=766&rnd=84"
  }, 
  {
    "name": "V. CONSOLARE POMPEA 1929 DIR LAGO",
    "lat": 38.26211179503126,
    "lon": 15.618105932808044,
    "url": "https://www.atmmessinaspa.it/smartpoles2.php?palina=765&rnd=84"
  },   
  {
    "name": "V. CONSOLARE POMPEA 1929 DIR CENTRO",
    "lat": 38.26224521083938,
    "lon": 15.618089610236815,
    "url": "https://www.atmmessinaspa.it/smartpoles2.php?palina=1765&rnd=84"
  },
  {
    "name": "V. GARIBALDI - VILLA MAZZINI DIR LAGO",
    "lat": 38.19800456169704,
    "lon": 15.5574684385418,
    "url": "https://www.atmmessinaspa.it/smartpoles2.php?palina=514&rnd=84"
  },
  {
    "name": "V.LE LIBERTA' - RINGO DIR LAGO",
    "lat": 38.213546470506365,
    "lon": 15.562496222552126, 
    "url": "https://www.atmmessinaspa.it/smartpoles2.php?palina=556&rnd=84"
  },
  {
    "name": "V.LE LIBERTA' - RINGO DIR CENTRO",
    "lat": 38.213592834175444,
    "lon": 15.562222637233344, 
    "url": "https://www.atmmessinaspa.it/smartpoles2.php?palina=1556&rnd=84"
  },
  {
    "name": "MUSEO DIR LAGO",
    "lat": 38.21723018275719,
    "lon": 15.565505661067919, 
    "url": "https://www.atmmessinaspa.it/smartpoles2.php?palina=557&rnd=84"
  },
  {
    "name": "MUSEO DIR CENTRO",
    "lat": 38.216616682706544,
    "lon": 15.564453899856828, 
    "url": "https://www.atmmessinaspa.it/smartpoles2.php?palina=1557&rnd=84"
  },
  {
    "name": "MUSEO DIR CENTRO",
    "lat": 38.216616682706544,
    "lon": 15.564453899856828, 
    "url": "https://www.atmmessinaspa.it/smartpoles2.php?palina=1557&rnd=84"
  },
  {
    "name": "V. CONSOLARE POMPEA 45 DIR LAGO",
    "lat": 38.22154,
    "lon": 15.56569, 
    "url": "https://www.atmmessinaspa.it/smartpoles2.php?palina=692&rnd=84"
  },
  {
    "name": "V. CONSOLARE POMPEA 45 DIR CENTRO",
    "lat": 38.22154,
    "lon": 15.56558, 
    "url": "https://www.atmmessinaspa.it/smartpoles2.php?palina=1692&rnd=84"
  },
  {
    "name": "V. CONSOLARE POMPEA 245 DIR LAGO",
    "lat": 38.22400,
    "lon": 15.56676, 
    "url": "https://www.atmmessinaspa.it/smartpoles2.php?palina=693&rnd=84"
  },
  {
    "name": "V. CONSOLARE POMPEA 245 DIR CENTRO",
    "lat": 38.22404,
    "lon": 15.56666, 
    "url": "https://www.atmmessinaspa.it/smartpoles2.php?palina=1693&rnd=84"
  },
  {
    "name": "PARADISO POSTE DIR LAGO",
    "lat": 38.22661,
    "lon": 15.56850, 
    "url": "https://www.atmmessinaspa.it/smartpoles2.php?palina=694&rnd=84"
  },
  {
    "name": "PARADISO POSTE DIR CENTRO",
    "lat": 38.22661,
    "lon": 15.56840, 
    "url": "https://www.atmmessinaspa.it/smartpoles2.php?palina=1694&rnd=84"
  },
  {
    "name": "CONT - POMPEA N 239 DIR CENTRO",
    "lat": 38.22921,
    "lon": 15.56970, 
    "url": "https://www.atmmessinaspa.it/smartpoles2.php?palina=1695&rnd=84"
  },
  {
    "name": "CONT - POMPEA N 239 DIR LAGO",
    "lat": 38.22921,
    "lon": 15.56980, 
    "url": "https://www.atmmessinaspa.it/smartpoles2.php?palina=695&rnd=84"
  },
  {
    "name": "CONT - POMPEA N 419 DIR CENTRO",
    "lat": 38.23231,
    "lon": 15.57091, 
    "url": "https://www.atmmessinaspa.it/smartpoles2.php?palina=1696&rnd=84"
  },
  {
    "name": "CONT - POMPEA N 419 DIR LAGO",
    "lat": 38.23231,
    "lon": 15.57100, 
    "url": "https://www.atmmessinaspa.it/smartpoles2.php?palina=696&rnd=84"
  },
  {
    "name": "CONT - V.LLA BOSURGI DIR LAGO",
    "lat": 38.23432,
    "lon": 15.57210, 
    "url": "https://www.atmmessinaspa.it/smartpoles2.php?palina=697&rnd=84"
  },
  {
    "name": "CONT - V.LLA BOSURGI DIR CENTRO",
    "lat": 38.23432,
    "lon": 15.57201, 
    "url": "https://www.atmmessinaspa.it/smartpoles2.php?palina=1697&rnd=84"
  },
  {
    "name": "PACE V. CONSOLARE POMPEA DIR LAGO",
    "lat": 38.23671,
    "lon": 15.57530, 
    "url": "https://www.atmmessinaspa.it/smartpoles2.php?palina=698&rnd=84"
  },
  {
    "name": "TORR.PACE DIR CENTRO",
    "lat": 38.23671,
    "lon": 15.57530, 
    "url": "https://www.atmmessinaspa.it/smartpoles2.php?palina=1698&rnd=84"
  },
  {
    "name": "GROTTE - POMPEA N 836 DIR LAGO",
    "lat": 38.24192,
    "lon": 15.58000, 
    "url": "https://www.atmmessinaspa.it/smartpoles2.php?palina=700&rnd=84"
  },
  {
    "name": "GROTTE - POMPEA N 836 DIR CENTRO",
    "lat": 38.24190,
    "lon": 15.57990, 
    "url": "https://www.atmmessinaspa.it/smartpoles2.php?palina=1700&rnd=84"
  },
  {
    "name": "GROTTE - C.DA FORTINO DIR LAGO",
    "lat": 38.24423,
    "lon": 15.58090, 
    "url": "https://www.atmmessinaspa.it/smartpoles2.php?palina=701&rnd=84"
  },
  {
    "name": "GROTTE - C.DA FORTINO DIR CENTRO",
    "lat": 38.24420,
    "lon": 15.58080, 
    "url": "https://www.atmmessinaspa.it/smartpoles2.php?palina=1701&rnd=84"
  },
  {
    "name": "GROTTE - POMPEA N 1129 DIR LAGO",
    "lat": 38.24641,
    "lon": 15.58280, 
    "url": "https://www.atmmessinaspa.it/smartpoles2.php?palina=702&rnd=84"
  },
  {
    "name": "GROTTE - POMPEA N 1129 DIR CENTRO",
    "lat": 38.24640,
    "lon": 15.58270, 
    "url": "https://www.atmmessinaspa.it/smartpoles2.php?palina=1702&rnd=84"
  },
  {
    "name": "GROTTE - POMPEA N 1279 DIR LAGO",
    "lat": 38.24792,
    "lon": 15.58471, 
    "url": "https://www.atmmessinaspa.it/smartpoles2.php?palina=703&rnd=84"
  },
  {
    "name": "GROTTE - POMPEA N 1279 DIR CENTRO",
    "lat": 38.24791,
    "lon": 15.58460, 
    "url": "https://www.atmmessinaspa.it/smartpoles2.php?palina=1703&rnd=84"
  },
  {
    "name": "GROTTE - POMPEA N 1349 DIR LAGO",
    "lat": 38.24941,
    "lon": 15.58770, 
    "url": "https://www.atmmessinaspa.it/smartpoles2.php?palina=704&rnd=84"
  },
  {
    "name": "GROTTE - POMPEA N 1349 DIR CENTRO",
    "lat": 38.24940,
    "lon": 15.58760, 
    "url": "https://www.atmmessinaspa.it/smartpoles2.php?palina=1704&rnd=84"
  }
]



